timestamp,timestamp_sample,lat,lon,alt,alt_ellipsoid,delta_alt,eph,epv,terrain_alt,lat_lon_reset_counter,alt_reset_counter,terrain_alt_valid,dead_reckoning
23478327,23474045,40.15177902,116.2579709,49.989723,49.987003,0.001701995,0.76811457,0.84999996,nan,2,2,0,0
23492257,23487088,40.15177902,116.2579709,49.989674,49.985294,0.001701995,0.76812714,0.8500128,nan,2,2,0,0
23682912,23678552,40.15177899,116.2579711,49.97736,49.97175,0.001701995,0.5075651,0.45586273,nan,2,2,0,0
23879243,23875551,40.15177898,116.2579714,49.970665,49.96316,0.001701995,0.4667621,0.43693784,nan,2,2,0,0
24082636,24078542,40.15177886,116.2579715,49.96865,49.961308,0.001701995,0.4208305,0.42625582,nan,2,2,0,0
24275414,24270270,40.15177878,116.2579715,49.969475,49.96171,0.001701995,0.3854358,0.42012736,nan,2,2,0,0
24475122,24470794,40.15177876,116.2579715,49.970078,49.960842,0.001701995,0.37359905,0.41812518,nan,2,2,0,0
24670989,24666644,40.15177878,116.2579716,49.969296,49.95673,0.001701995,0.3713248,0.41735607,nan,2,2,0,0
24878375,24874746,40.15177876,116.2579716,49.96697,49.952835,0.001701995,0.36390868,0.41601527,nan,2,2,0,0
25078988,25074201,40.15177875,116.2579717,49.96241,49.945545,0.001701995,0.35909238,0.41544828,nan,2,2,0,0
25283185,25279091,40.15177881,116.2579717,49.958748,49.940983,0.001701995,0.3552748,0.4148233,nan,2,2,0,0
25482694,25478337,40.15177881,116.2579716,49.957504,49.937588,0.001701995,0.35216933,0.41417867,nan,2,2,0,0
25675219,25671027,40.15177881,116.2579716,49.953274,49.931896,0.001701995,0.34665743,0.41336015,nan,2,2,0,0
25874418,25870140,40.15177882,116.2579716,49.949497,49.927067,0.001701995,0.34863552,0.41404894,nan,2,2,0,0
26071612,26066759,40.1517788,116.2579716,49.946404,49.923336,0.001701995,0.3441619,0.4132259,nan,2,2,0,0
26279255,26274222,40.15177879,116.2579716,49.94579,49.922882,0.001701995,0.34628624,0.41317773,nan,2,2,0,0
26482621,26478167,40.15177879,116.2579716,49.945045,49.920208,0.001701995,0.3428435,0.41264972,nan,2,2,0,0
26682423,26678086,40.15177878,116.2579716,49.9435,49.91838,0.001701995,0.3425061,0.41242063,nan,2,2,0,0
26875348,26870755,40.15177876,116.2579716,49.941265,49.914856,0.001701995,0.34229133,0.41221547,nan,2,2,0,0
27078438,27074717,40.15177875,116.2579716,49.93809,49.9125,0.001701995,0.34180358,0.41188735,nan,2,2,0,0
27271049,27266486,40.15177876,116.2579717,49.938046,49.91248,0.001701995,0.34543222,0.41216454,nan,2,2,0,0
27474361,27470353,40.15177877,116.2579717,49.93838,49.912506,0.001701995,0.34496126,0.41228864,nan,2,2,0,0
27682836,27678766,40.15177876,116.2579717,49.93793,49.910446,0.001701995,0.34261084,0.4117251,nan,2,2,0,0
27882338,27878047,40.15177876,116.2579717,49.936806,49.90844,0.001701995,0.34565437,0.41219383,nan,2,2,0,0
28078761,28074519,40.15177878,116.2579716,49.9355,49.90641,0.001701995,0.34382322,0.41185868,nan,2,2,0,0
28275224,28270073,40.15177877,116.2579716,49.93269,49.903522,0.001701995,0.347415,0.4124719,nan,2,2,0,0
28474778,28471165,40.1517788,116.2579716,49.930744,49.900658,0.001701995,0.3478108,0.41247213,nan,2,2,0,0
28666642,28659079,40.15177884,116.2579716,49.928574,49.897263,0.001701995,0.34657496,0.4119628,nan,2,2,0,0
28875167,28870836,40.15177887,116.2579716,49.925888,49.895283,0.001701995,0.34375933,0.41174987,nan,2,2,0,0
29079322,29074933,40.15177888,116.2579716,49.9232,49.892117,0.001701995,0.34345475,0.41147262,nan,2,2,0,0
29282884,29278831,40.15177886,116.2579716,49.92098,49.88932,0.001701995,0.3470555,0.41141248,nan,2,2,0,0
29482511,29478010,40.1517788,116.2579717,49.917587,49.885006,0.001701995,0.34227994,0.41078305,nan,2,2,0,0
29670448,29666333,40.15177875,116.2579717,49.914295,49.882557,0.001701995,0.34586468,0.41109955,nan,2,2,0,0
29874658,29871070,40.15177873,116.2579717,49.91188,49.880623,0.001701995,0.34222364,0.4104249,nan,2,2,0,0
30074614,30070507,40.15177872,116.2579717,49.90973,49.878407,0.001701995,0.34267715,0.41038865,nan,2,2,0,0
30270983,30266618,40.15177869,116.2579716,49.908367,49.87729,0.001701995,0.34345776,0.4104375,nan,2,2,0,0
30478639,30473992,40.15177864,116.2579717,49.908524,49.877502,0.001701995,0.3432109,0.4106355,nan,2,2,0,0
30682995,30678520,40.15177953,116.2579717,49.908615,49.877754,0.001701995,0.3438186,0.4107135,nan,2,2,0,0
30879200,30875530,40.15178297,116.2579716,49.9076,49.877472,0.001701995,0.34710085,0.41069812,nan,2,2,0,0
31079574,31074969,40.15178895,116.2579715,49.909557,49.878193,0.001701995,0.34800026,0.41090795,nan,2,2,0,0
31275218,31271212,40.15179705,116.2579715,49.94172,49.909706,0.001701995,0.3440086,0.4108672,nan,2,2,0,0
31474936,31470802,40.15180728,116.2579715,49.998177,49.96505,0.001701995,0.34808806,0.41126543,nan,2,2,0,0
31679338,31674897,40.15181897,116.2579715,50.164425,50.131153,0.001701995,0.34770986,0.41147593,nan,2,2,0,0
31874910,31870796,40.15183011,116.2579715,50.55149,50.518276,0.001701995,0.34352896,0.41147265,nan,2,2,0,0
32078421,32074042,40.15184133,116.2579716,51.123898,51.09199,0.001701995,0.3470806,0.41238597,nan,2,2,0,0
32283068,32278463,40.15185306,116.2579717,51.74044,51.710823,0.001701995,0.34326085,0.41235432,nan,2,2,0,0
32474888,32470648,40.15186445,116.257972,52.36907,52.33906,0.001701995,0.34321976,0.41263387,nan,2,2,0,0
32675371,32671186,40.15187655,116.2579722,53.08094,53.05239,0.001701995,0.34311578,0.41288817,nan,2,2,0,0
32874578,32870484,40.1518892,116.2579726,53.797348,53.77037,0.001701995,0.3467361,0.41364682,nan,2,2,0,0
33078841,33074554,40.15190235,116.2579731,54.59862,54.571888,0.001701995,0.3434902,0.4135037,nan,2,2,0,0
33270690,33266702,40.15191524,116.2579738,55.363613,55.33768,0.001701995,0.34325948,0.4134956,nan,2,2,0,0
33483061,33478354,40.15192973,116.2579748,56.2536,56.227024,0.001701995,0.34305263,0.41340068,nan,2,2,0,0
33683201,33678596,40.15194384,116.257976,57.11817,57.09317,0.001701995,0.34379143,0.41368896,nan,2,2,0,0
33875374,33870644,40.15195768,116.2579774,57.97988,57.9558,0.001701995,0.34357384,0.413505,nan,2,2,0,0
34078596,34074000,40.1519727,116.2579792,58.92235,58.898827,0.001701995,0.343703,0.4134432,nan,2,2,0,0
34280093,34275000,40.15198787,116.2579814,59.880318,59.855995,0.001701995,0.34384382,0.41394898,nan,2,2,0,0
34478818,34474371,40.15200325,116.257984,60.857166,60.83294,0.001701995,0.34391588,0.41383323,nan,2,2,0,0
34675303,34671000,40.15201873,116.2579868,61.845448,61.82053,0.001701995,0.34324345,0.41341645,nan,2,2,0,0
34879239,34875145,40.15203508,116.2579903,62.900124,62.875214,0.001701995,0.3434875,0.4133675,nan,2,2,0,0
35079333,35074874,40.15205133,116.2579941,63.956764,63.93209,0.001701995,0.3433152,0.4131613,nan,2,2,0,0
35278907,35273965,40.1520678,116.2579985,65.03751,65.01433,0.001701995,0.3477324,0.41357085,nan,2,2,0,0
35478443,35474025,40.15208454,116.2580034,66.151726,66.131226,0.001701995,0.3436792,0.41300678,nan,2,2,0,0
35679036,35674501,40.15210155,116.2580089,67.2907,67.27065,0.001701995,0.3441443,0.4130291,nan,2,2,0,0
35878300,35873979,40.15211867,116.2580149,68.444534,68.42522,0.001701995,0.34745985,0.41356778,nan,2,2,0,0
36075418,36071094,40.1521358,116.2580215,69.60478,69.58569,0.001701995,0.3431785,0.4128799,nan,2,2,0,0
36282857,36278621,40.15215405,116.258029,70.851166,70.83373,0.001701995,0.34372246,0.41293705,nan,2,2,0,0
36478828,36474943,40.15217152,116.2580366,72.05665,72.04077,0.001701995,0.3431082,0.41256797,nan,2,2,0,0
36678811,36674348,40.15218943,116.2580447,73.3028,73.28765,0.001701995,0.34331846,0.41251534,nan,2,2,0,0
36870632,36866296,40.15220682,116.258053,74.51874,74.50375,0.001701995,0.34698057,0.41270137,nan,2,2,0,0
37078890,37074491,40.15222577,116.2580627,75.8571,75.84227,0.001701995,0.34323347,0.4122392,nan,2,2,0,0
37270378,37266207,40.1522433,116.2580724,77.10825,77.09276,0.001701995,0.34647354,0.41229457,nan,2,2,0,0
37475167,37470973,40.15226208,116.2580833,78.46291,78.448746,0.001701995,0.3432435,0.4120131,nan,2,2,0,0
37674946,37670607,40.15228049,116.2580945,79.80061,79.78622,0.001701995,0.34335184,0.41192982,nan,2,2,0,0
37874315,37869967,40.15229897,116.2581063,81.15178,81.13792,0.001701995,0.346876,0.41205475,nan,2,2,0,0
38075295,38070956,40.15231767,116.2581187,82.53259,82.51751,0.001701995,0.34346822,0.41174033,nan,2,2,0,0
38278753,38275071,40.15233669,116.2581318,83.95334,83.93944,0.001701995,0.34343094,0.41204348,nan,2,2,0,0
38479219,38474913,40.15235532,116.2581453,85.36116,85.348694,0.001701995,0.34345007,0.41151872,nan,2,2,0,0
38678916,38674460,40.15237391,116.2581593,86.785416,86.77453,0.001701995,0.34309462,0.4117211,nan,2,2,0,0
38878402,38874620,40.15239255,116.2581739,88.22715,88.21562,0.001701995,0.34618363,0.4117481,nan,2,2,0,0
39074619,39070591,40.15241073,116.2581888,89.652054,89.638664,0.001701995,0.34680524,0.41181803,nan,2,2,0,0
39282702,39278243,40.15242988,116.2582052,91.17981,91.16433,0.001701995,0.34240746,0.41122705,nan,2,2,0,0
39478927,39474435,40.15244825,116.2582216,92.58211,92.56657,0.001701995,0.34271473,0.41123253,nan,2,2,0,0
39675260,39670803,40.15246732,116.2582391,93.85713,93.84199,0.001701995,0.3428982,0.41121137,nan,2,2,0,0
39878854,39874157,40.15248794,116.2582588,95.02285,95.00647,0.001701995,0.3426566,0.41106713,nan,2,2,0,0
40074747,40070150,40.15250868,116.2582793,95.99991,95.98266,0.001701995,0.34250182,0.41096273,nan,2,2,0,0
40275508,40270687,40.15253076,116.258302,96.85928,96.84128,0.001701995,0.34305942,0.41106895,nan,2,2,0,0
40478404,40473945,40.15255408,116.2583267,97.58583,97.567184,0.001701995,0.3462816,0.41151264,nan,2,2,0,0
40674848,40670528,40.15257752,116.2583522,98.18123,98.16266,0.001701995,0.34268054,0.4112419,nan,2,2,0,0
40878355,40873955,40.1526027,116.2583804,98.69264,98.67495,0.001701995,0.34253806,0.41115075,nan,2,2,0,0
41074635,41070338,40.15262749,116.2584085,99.083,99.06502,0.001701995,0.3431816,0.41128793,nan,2,2,0,0
41274776,41270540,40.15265249,116.2584373,99.37904,99.36107,0.001701995,0.34328383,0.41123545,nan,2,2,0,0
41478663,41473951,40.15267745,116.2584665,99.614365,99.59746,0.001701995,0.3429704,0.41104907,nan,2,2,0,0
41674943,41670566,40.15270113,116.2584948,99.77823,99.76226,0.001701995,0.34270084,0.41087526,nan,2,2,0,0
41878439,41874060,40.15272503,116.2585241,99.90222,99.88567,0.001701995,0.34242713,0.41105744,nan,2,2,0,0
42074838,42070489,40.15274748,116.2585527,99.994354,99.97637,0.001701995,0.3427852,0.41108155,nan,2,2,0,0
42278098,42273873,40.15277016,116.2585824,100.05995,100.0407,0.001701995,0.34542155,0.41105938,nan,2,2,0,0
42474373,42469955,40.15279152,116.2586109,100.100136,100.07969,0.001701995,0.34214336,0.41076928,nan,2,2,0,0
42674686,42670475,40.15281273,116.2586403,100.1392,100.12005,0.001701995,0.34561166,0.41101733,nan,2,2,0,0
42878556,42874095,40.15283353,116.2586705,100.16626,100.14759,0.001701995,0.34222367,0.41074902,nan,2,2,0,0
43078476,43074228,40.15285324,116.2587004,100.1763,100.15697,0.001701995,0.3426338,0.41088226,nan,2,2,0,0
43278432,43274287,40.15287249,116.2587303,100.1765,100.15765,0.001701995,0.3423396,0.41081244,nan,2,2,0,0
43474925,43470645,40.15289101,116.2587594,100.17439,100.157234,0.001701995,0.34244552,0.4108767,nan,2,2,0,0
43674380,43670021,40.15290945,116.2587889,100.16748,100.15058,0.001701995,0.34544402,0.41140363,nan,2,2,0,0
43882203,43874777,40.15292792,116.2588193,100.16165,100.144905,0.001701995,0.3425333,0.41097203,nan,2,2,0,0
44078734,44074736,40.15294544,116.2588489,100.15663,100.139885,0.001701995,0.34763423,0.4117135,nan,2,2,0,0
44279519,44274776,40.15296236,116.2588786,100.14066,100.12186,0.001701995,0.34672853,0.41204703,nan,2,2,0,0
44478575,44474334,40.15297873,116.2589082,100.14006,100.120186,0.001701995,0.34702834,0.4118623,nan,2,2,0,0
44674709,44670459,40.15299441,116.2589372,100.11832,100.09826,0.001701995,0.34581056,0.4120389,nan,2,2,0,0
44882611,44878541,40.15301066,116.2589679,100.11232,100.08932,0.001701995,0.34518063,0.41192874,nan,2,2,0,0
45075201,45070793,40.15302531,116.2589963,100.102356,100.07995,0.001701995,0.34468234,0.41184476,nan,2,2,0,0
45270509,45266483,40.15303993,116.2590251,100.08946,100.06808,0.001701995,0.34736842,0.41230932,nan,2,2,0,0
45474449,45470067,40.15305493,116.2590549,100.07643,100.05407,0.001701995,0.34301347,0.41139573,nan,2,2,0,0
45678518,45673985,40.15306965,116.2590846,100.06694,100.04448,0.001701995,0.34339607,0.4115606,nan,2,2,0,0
45882954,45878822,40.15308413,116.2591143,100.062195,100.038635,0.001701995,0.34300986,0.41146147,nan,2,2,0,0
46082688,46078197,40.15309806,116.2591431,100.053375,100.03075,0.001701995,0.34271318,0.41178533,nan,2,2,0,0
46282943,46278609,40.15311198,116.2591718,100.04311,100.01917,0.001701995,0.34316388,0.4115346,nan,2,2,0,0
46482399,46478106,40.15312583,116.2592001,100.03737,100.01149,0.001701995,0.3460612,0.4120545,nan,2,2,0,0
46678998,46674709,40.15313952,116.2592278,100.03148,100.00436,0.001701995,0.34263715,0.4117429,nan,2,2,0,0
46871042,46866432,40.15315289,116.2592545,100.02385,99.995605,0.001701995,0.3423904,0.41164413,nan,2,2,0,0
47078500,47073919,40.15316742,116.2592831,100.010605,99.98158,0.001701995,0.34561485,0.4118492,nan,2,2,0,0
47279573,47273912,40.15318133,116.2593106,99.9933,99.96398,0.001701995,0.34198698,0.41143978,nan,2,2,0,0
47482755,47478697,40.15319552,116.2593386,99.98335,99.95443,0.001701995,0.34252828,0.4115952,nan,2,2,0,0
47675005,47670897,40.15320886,116.2593648,99.97479,99.945755,0.001701995,0.34542796,0.4121155,nan,2,2,0,0
47878333,47874796,40.15322298,116.2593925,99.96425,99.9337,0.001701995,0.34522372,0.41200086,nan,2,2,0,0
48074214,48070013,40.15323638,116.2594189,99.95322,99.92371,0.001701995,0.34439737,0.411691,nan,2,2,0,0
48279123,48273950,40.15325038,116.2594463,99.943405,99.914276,0.001701995,0.3418817,0.41160202,nan,2,2,0,0
48474124,48469858,40.15326386,116.2594725,99.93831,99.91032,0.001701995,0.34486783,0.41175944,nan,2,2,0,0
48674613,48670578,40.15327765,116.2594992,99.93813,99.91068,0.001701995,0.34184116,0.41150868,nan,2,2,0,0
48878799,48875165,40.1532918,116.2595262,99.933044,99.90504,0.001701995,0.3424411,0.4116734,nan,2,2,0,0
49078596,49073847,40.15330565,116.2595523,99.92526,99.89684,0.001701995,0.3422488,0.41156086,nan,2,2,0,0
49282543,49278322,40.15332001,116.2595789,99.92028,99.89078,0.001701995,0.34303433,0.4117867,nan,2,2,0,0
49479172,49474721,40.15333386,116.2596044,99.916954,99.888535,0.001701995,0.34237263,0.41150856,nan,2,2,0,0
49670814,49666450,40.15334749,116.2596291,99.91285,99.88535,0.001701995,0.3455512,0.4121185,nan,2,2,0,0
49874370,49869839,40.15336199,116.2596552,99.90774,99.878654,0.001701995,0.344937,0.41187397,nan,2,2,0,0
50074639,50070559,40.15337626,116.2596809,99.89851,99.867584,0.001701995,0.3421996,0.41131306,nan,2,2,0,0
50279347,50274298,40.15339072,116.259707,99.89317,99.863884,0.001701995,0.3426411,0.41141802,nan,2,2,0,0
50475095,50469750,40.15340458,116.2597319,99.89348,99.866394,0.001701995,0.34544134,0.41190428,nan,2,2,0,0
50674759,50670551,40.15341887,116.2597573,99.892395,99.86685,0.001701995,0.34590715,0.4120125,nan,2,2,0,0
50874669,50871020,40.15343322,116.2597825,99.887314,99.86098,0.001701995,0.34306452,0.41185337,nan,2,2,0,0
51075399,51070383,40.15344758,116.2598076,99.87739,99.852455,0.001701995,0.34604672,0.41196162,nan,2,2,0,0
51274880,51270434,40.15346193,116.2598326,99.870514,99.84354,0.001701995,0.34247825,0.41156158,nan,2,2,0,0
51470173,51466122,40.15347598,116.2598571,99.864,99.837975,0.001701995,0.3448,0.41190603,nan,2,2,0,0
51682107,51677832,40.15349122,116.2598835,99.85437,99.827995,0.001701995,0.34197378,0.4113159,nan,2,2,0,0
51874633,51870342,40.15350513,116.2599074,99.84366,99.81801,0.001701995,0.3448201,0.41183695,nan,2,2,0,0
52070058,52066088,40.15351927,116.2599316,99.835815,99.810814,0.001701995,0.34395957,0.41152728,nan,2,2,0,0
52274774,52270628,40.15353409,116.2599568,99.83232,99.80918,0.001701995,0.34176454,0.4115375,nan,2,2,0,0
52474967,52470266,40.15354867,116.2599812,99.82951,99.805016,0.001701995,0.3449464,0.41176516,nan,2,2,0,0
52678999,52674634,40.15356368,116.2600062,99.82266,99.79845,0.001701995,0.3415432,0.41138223,nan,2,2,0,0
52870655,52866153,40.15357775,116.2600295,99.8136,99.788765,0.001701995,0.34483358,0.41165072,nan,2,2,0,0
53079090,53074689,40.15359311,116.2600549,99.80177,99.77752,0.001701995,0.34175566,0.41137925,nan,2,2,0,0
53278046,53274776,40.1536079,116.260079,99.794395,99.770645,0.001701995,0.34500197,0.4116196,nan,2,2,0,0
53478464,53474407,40.15362273,116.260103,99.78543,99.76182,0.001701995,0.34523562,0.41165254,nan,2,2,0,0
53679039,53675007,40.15363769,116.260127,99.77486,99.75207,0.001701995,0.34206215,0.4113736,nan,2,2,0,0
53874109,53869792,40.15365226,116.2601502,99.76776,99.74655,0.001701995,0.34492153,0.4118965,nan,2,2,0,0
54078740,54074867,40.15366767,116.2601746,99.76139,99.740814,0.001701995,0.3420905,0.41170526,nan,2,2,0,0
54279323,54274821,40.15368279,116.2601983,99.75805,99.73692,0.001701995,0.34159702,0.4114832,nan,2,2,0,0
54482773,54478289,40.15369828,116.2602224,99.75609,99.736,0.001701995,0.34183833,0.411524,nan,2,2,0,0
54678890,54674436,40.15371325,116.2602455,99.75392,99.73477,0.001701995,0.34179047,0.41145578,nan,2,2,0,0
54878335,54874924,40.15372853,116.2602692,99.75338,99.73386,0.001701995,0.3450567,0.41170302,nan,2,2,0,0
55079238,55074768,40.15374372,116.2602927,99.7548,99.735016,0.001701995,0.34195772,0.41143316,nan,2,2,0,0
55275089,55271684,40.15375858,116.260316,99.75518,99.73542,0.001701995,0.34519914,0.41166687,nan,2,2,0,0
55478981,55474730,40.15377377,116.2603401,99.75557,99.73627,0.001701995,0.34501392,0.41198543,nan,2,2,0,0
55675068,55670580,40.15378824,116.2603634,99.75168,99.73213,0.001701995,0.34487954,0.41189766,nan,2,2,0,0
55882684,55878755,40.15380352,116.2603885,99.74364,99.72224,0.001701995,0.34246647,0.41143534,nan,2,2,0,0
56082088,56077774,40.15381806,116.2604124,99.742195,99.7222,0.001701995,0.34493032,0.41181278,nan,2,2,0,0
56271545,56266477,40.15383186,116.2604352,99.73961,99.71898,0.001701995,0.34488696,0.4117551,nan,2,2,0,0
56470098,56465981,40.15384642,116.2604592,99.73724,99.71686,0.001701995,0.34443167,0.41156587,nan,2,2,0,0
56677988,56674803,40.15386167,116.2604843,99.732185,99.71146,0.001701995,0.34445962,0.41153613,nan,2,2,0,0
56870460,56866090,40.15387563,116.2605073,99.727234,99.7048,0.001701995,0.34485707,0.4116332,nan,2,2,0,0
57079305,57074631,40.15389091,116.2605323,99.722946,99.70063,0.001701995,0.3417971,0.41137832,nan,2,2,0,0
57279044,57276321,40.15390575,116.2605564,99.719376,99.69747,0.001701995,0.3423046,0.4115242,nan,2,2,0,0
57482688,57478353,40.15392063,116.2605804,99.71449,99.69206,0.001701995,0.34240207,0.41152593,nan,2,2,0,0
57670516,57666122,40.15393447,116.2606027,99.71112,99.68917,0.001701995,0.34484082,0.4119181,nan,2,2,0,0
57875480,57870458,40.15394957,116.260627,99.708206,99.68504,0.001701995,0.34147072,0.41152447,nan,2,2,0,0
58074564,58071057,40.15396434,116.2606509,99.7065,99.68468,0.001701995,0.34399867,0.41156688,nan,2,2,0,0
58277963,58274073,40.15397924,116.2606752,99.70663,99.68618,0.001701995,0.34188518,0.4116057,nan,2,2,0,0
58474091,58469620,40.15399355,116.2606986,99.70997,99.68931,0.001701995,0.34508,0.41184798,nan,2,2,0,0
58678369,58673873,40.15400847,116.260723,99.710724,99.69091,0.001701995,0.34193543,0.4115526,nan,2,2,0,0
58874140,58869788,40.15402274,116.2607464,99.712135,99.69465,0.001701995,0.34473863,0.41166297,nan,2,2,0,0
59078640,59074547,40.15403767,116.2607709,99.713585,99.69757,0.001701995,0.34172446,0.41140872,nan,2,2,0,0
59279079,59274945,40.15405228,116.2607948,99.712845,99.6981,0.001701995,0.34162936,0.41133422,nan,2,2,0,0
59478942,59474017,40.15406683,116.2608187,99.71329,99.69802,0.001701995,0.3448285,0.4115763,nan,2,2,0,0
59671026,59665852,40.15408086,116.2608416,99.71365,99.69799,0.001701995,0.34120274,0.4115002,nan,2,2,0,0
59875037,59870523,40.15409583,116.2608661,99.7093,99.69506,0.001701995,0.34183115,0.4112895,nan,2,2,0,0
60078478,60073902,40.15411071,116.2608904,99.708206,99.69608,0.001701995,0.34467098,0.41182256,nan,2,2,0,0
60282959,60279110,40.15412565,116.260915,99.70963,99.69658,0.001701995,0.34143275,0.4114715,nan,2,2,0,0
60482299,60477972,40.15414006,116.2609389,99.70749,99.69352,0.001701995,0.34151018,0.41145933,nan,2,2,0,0
60678777,60674615,40.15415429,116.2609625,99.706665,99.69336,0.001701995,0.34480226,0.41174918,nan,2,2,0,0
60870463,60866167,40.15416818,116.2609856,99.7046,99.69065,0.001701995,0.34507355,0.41179907,nan,2,2,0,0
61070624,61066039,40.15418266,116.2610096,99.70387,99.688934,0.001701995,0.34454718,0.41158617,nan,2,2,0,0
61278778,61274565,40.15419788,116.2610346,99.70181,99.68762,0.001701995,0.34165543,0.41136408,nan,2,2,0,0
61482674,61478067,40.15421277,116.2610589,99.6987,99.68371,0.001701995,0.3416252,0.4113221,nan,2,2,0,0
61678033,61673984,40.15422706,116.2610824,99.69499,99.68063,0.001701995,0.34195086,0.4113922,nan,2,2,0,0
61870263,61865942,40.15424107,116.2611054,99.691246,99.67805,0.001701995,0.34445176,0.41181502,nan,2,2,0,0
62069848,62065734,40.15425567,116.2611292,99.68982,99.67746,0.001701995,0.3444431,0.41176987,nan,2,2,0,0
62270266,62265982,40.15427034,116.2611531,99.691086,99.67867,0.001701995,0.34479702,0.41183704,nan,2,2,0,0
62478977,62474555,40.15428562,116.261178,99.693924,99.681625,0.001701995,0.34177247,0.41156235,nan,2,2,0,0
62670278,62666009,40.1542996,116.2612009,99.6929,99.68105,0.001701995,0.34498313,0.41181415,nan,2,2,0,0
62874613,62869996,40.15431444,116.2612253,99.69006,99.67861,0.001701995,0.3418748,0.41151723,nan,2,2,0,0
63082939,63078984,40.15432952,116.2612505,99.69069,99.67954,0.001701995,0.34205297,0.4115384,nan,2,2,0,0
63282384,63277806,40.15434383,116.2612744,99.69362,99.681496,0.001701995,0.34191748,0.4114516,nan,2,2,0,0
63482249,63477866,40.15435816,116.2612987,99.692474,99.678856,0.001701995,0.3421488,0.41149506,nan,2,2,0,0
63678780,63673943,40.15437198,116.2613226,99.68859,99.67522,0.001701995,0.34200805,0.41140905,nan,2,2,0,0
63879248,63874787,40.15438595,116.2613473,99.68646,99.672005,0.001701995,0.3418803,0.41132686,nan,2,2,0,0
64070312,64065884,40.15439902,116.261371,99.6828,99.66803,0.001701995,0.34501648,0.41196656,nan,2,2,0,0
64282627,64278226,40.15441322,116.2613976,99.68182,99.66655,0.001701995,0.34222028,0.41137236,nan,2,2,0,0
64478965,64474811,40.15442608,116.2614224,99.68117,99.6657,0.001701995,0.34202993,0.41166952,nan,2,2,0,0
64678188,64673882,40.15443891,116.2614478,99.68027,99.66579,0.001701995,0.34508026,0.41185254,nan,2,2,0,0
64878659,64874472,40.15445157,116.2614735,99.67871,99.66342,0.001701995,0.34191644,0.41155112,nan,2,2,0,0
65074444,65069674,40.15446363,116.2614987,99.67833,99.6627,0.001701995,0.34500042,0.4117512,nan,2,2,0,0
65278433,65274106,40.15447608,116.2615253,99.67409,99.6577,0.001701995,0.34243676,0.4116492,nan,2,2,0,0
65478387,65474587,40.15448813,116.2615516,99.671005,99.65302,0.001701995,0.34179178,0.4113805,nan,2,2,0,0
65682597,65678040,40.15450019,116.2615784,99.66373,99.64465,0.001701995,0.34215796,0.41146836,nan,2,2,0,0
65878688,65874981,40.15451172,116.2616045,99.65706,99.637985,0.001701995,0.3418821,0.4113349,nan,2,2,0,0
66079242,66073826,40.1545232,116.2616309,99.65123,99.63211,0.001701995,0.34557855,0.41215658,nan,2,2,0,0
66278493,66273976,40.15453467,116.2616575,99.64669,99.62823,0.001701995,0.3424757,0.41146925,nan,2,2,0,0
66475123,66471076,40.15454589,116.2616837,99.64415,99.62378,0.001701995,0.3450514,0.41191012,nan,2,2,0,0
66673909,66669609,40.15455708,116.2617102,99.642426,99.621315,0.001701995,0.3450262,0.4118625,nan,2,2,0,0
66878532,66874091,40.15456848,116.2617376,99.640045,99.61768,0.001701995,0.34200874,0.4116009,nan,2,2,0,0
67078738,67074477,40.15457949,116.2617646,99.63901,99.616165,0.001701995,0.3417116,0.4114653,nan,2,2,0,0
67274775,67269894,40.15458998,116.2617911,99.639565,99.61729,0.001701995,0.3417587,0.41145766,nan,2,2,0,0
67478626,67474540,40.15460075,116.261819,99.64076,99.6171,0.001701995,0.3420861,0.41153926,nan,2,2,0,0
67682304,67677819,40.15461125,116.2618468,99.63771,99.61329,0.001701995,0.34174204,0.41138047,nan,2,2,0,0
67877981,67873862,40.15462113,116.2618738,99.63521,99.611534,0.001701995,0.34153134,0.41126767,nan,2,2,0,0
68078548,68074646,40.1546309,116.2619016,99.63451,99.60861,0.001701995,0.34164235,0.411675,nan,2,2,0,0
68274807,68271063,40.15464014,116.2619291,99.631546,99.60518,0.001701995,0.34141517,0.41155252,nan,2,2,0,0
68482890,68477754,40.15464953,116.2619581,99.63078,99.60352,0.001701995,0.34445924,0.41177282,nan,2,2,0,0
68682662,68678160,40.15465831,116.2619865,99.6266,99.59929,0.001701995,0.34175074,0.41160023,nan,2,2,0,0
68870956,68865914,40.15466625,116.2620132,99.62241,99.59589,0.001701995,0.3444812,0.4116957,nan,2,2,0,0
69078887,69074421,40.15467479,116.262043,99.62273,99.59806,0.001701995,0.3416886,0.41149738,nan,2,2,0,0
69279113,69274448,40.15468264,116.2620718,99.62189,99.5959,0.001701995,0.34147108,0.4113846,nan,2,2,0,0
69473838,69470783,40.15469014,116.2621001,99.61805,99.591415,0.001701995,0.34418443,0.41189343,nan,2,2,0,0
69675250,69670454,40.15469761,116.2621289,99.61497,99.58764,0.001701995,0.34153262,0.41133285,nan,2,2,0,0
69882731,69878180,40.15470512,116.2621591,99.61159,99.5848,0.001701995,0.3419934,0.4114613,nan,2,2,0,0
70078595,70074407,40.15471201,116.2621877,99.61262,99.58572,0.001701995,0.344745,0.41197574,nan,2,2,0,0
70282211,70277764,40.15471888,116.2622174,99.61287,99.58651,0.001701995,0.34133855,0.41156155,nan,2,2,0,0
70471047,70466212,40.15472503,116.262245,99.613556,99.58646,0.001701995,0.34222785,0.4114351,nan,2,2,0,0
70678772,70674760,40.15473163,116.2622756,99.61179,99.58434,0.001701995,0.34217504,0.41178125,nan,2,2,0,0
70873810,70869727,40.1547376,116.2623044,99.60701,99.58018,0.001701995,0.34481022,0.41182476,nan,2,2,0,0
71074215,71070643,40.15474358,116.262334,99.60617,99.57947,0.001701995,0.3452485,0.41192484,nan,2,2,0,0
71277973,71273491,40.15474936,116.262364,99.6057,99.57972,0.001701995,0.34486434,0.41175738,nan,2,2,0,0
71478053,71473619,40.15475476,116.2623936,99.60893,99.58335,0.001701995,0.34166774,0.41143298,nan,2,2,0,0
71682669,71678209,40.15475994,116.2624241,99.61043,99.58501,0.001701995,0.34238312,0.4116458,nan,2,2,0,0
71874625,71870668,40.15476451,116.2624528,99.610016,99.584,0.001701995,0.34469068,0.41199654,nan,2,2,0,0
72074247,72070030,40.15476897,116.2624827,99.611404,99.58691,0.001701995,0.34444556,0.41187215,nan,2,2,0,0
72274733,72270488,40.15477309,116.2625129,99.61454,99.59054,0.001701995,0.34143245,0.4111878,nan,2,2,0,0
72478151,72473686,40.15477682,116.2625435,99.61496,99.592285,0.001701995,0.341294,0.41148952,nan,2,2,0,0
72682430,72678063,40.15478012,116.2625744,99.61694,99.595856,0.001701995,0.34184027,0.41164678,nan,2,2,0,0
72882642,72878194,40.1547829,116.2626047,99.61774,99.59701,0.001701995,0.34200874,0.411266,nan,2,2,0,0
73082364,73077620,40.15478527,116.2626351,99.61624,99.59612,0.001701995,0.34151196,0.41145104,nan,2,2,0,0
73275116,73270269,40.15478721,116.2626644,99.61357,99.59378,0.001701995,0.34468722,0.41169485,nan,2,2,0,0
73469936,73465705,40.15478889,116.2626941,99.61055,99.59065,0.001701995,0.34383637,0.4117907,nan,2,2,0,0
73669852,73665712,40.15479049,116.2627245,99.60797,99.588745,0.001701995,0.34425944,0.4114823,nan,2,2,0,0
73875099,73870677,40.15479203,116.2627557,99.60718,99.588425,0.001701995,0.34163946,0.41134068,nan,2,2,0,0
74078420,74073918,40.15479349,116.2627867,99.61012,99.591705,0.001701995,0.3417864,0.41174757,nan,2,2,0,0
74278387,74275383,40.15479486,116.2628174,99.61345,99.594734,0.001701995,0.34133345,0.41153526,nan,2,2,0,0
74483064,74478577,40.1547962,116.2628483,99.61763,99.597404,0.001701995,0.34102377,0.41138235,nan,2,2,0,0
74670498,74665994,40.15479743,116.2628768,99.6162,99.59569,0.001701995,0.3446899,0.41180632,nan,2,2,0,0
74878028,74873724,40.15479874,116.2629085,99.61937,99.5995,0.001701995,0.34164944,0.411516,nan,2,2,0,0
75070236,75065780,40.15479993,116.2629377,99.61836,99.59815,0.001701995,0.3441517,0.4115322,nan,2,2,0,0
75275510,75270390,40.15480115,116.2629689,99.61445,99.59329,0.001701995,0.34132648,0.41131926,nan,2,2,0,0
75482474,75478702,40.15480235,116.2630006,99.61494,99.59473,0.001701995,0.34201196,0.4115094,nan,2,2,0,0
75682341,75677836,40.1548035,116.263031,99.61758,99.59889,0.001701995,0.3419101,0.41143173,nan,2,2,0,0
75878673,75874465,40.15480461,116.2630609,99.62175,99.603065,0.001701995,0.34590703,0.41190144,nan,2,2,0,0
76071595,76071033,40.15480562,116.2630909,99.624115,99.60667,0.001701995,0.3461205,0.412034,nan,2,2,0,0
76277953,76274857,40.15480662,116.2631219,99.624146,99.60853,0.001701995,0.34578088,0.41197535,nan,2,2,0,0
76474851,76470457,40.15480755,116.2631517,99.62816,99.61528,0.001701995,0.349071,0.41268322,nan,2,2,0,0
76682142,76674695,40.15480858,116.2631828,99.63098,99.619736,0.001701995,0.34800646,0.41249165,nan,2,2,0,0
76878132,76873759,40.1548097,116.2632131,99.63238,99.62113,0.001701995,0.3522111,0.41247037,nan,2,2,0,0
77082692,77077519,40.15481086,116.2632442,99.63185,99.62137,0.001701995,0.35115376,0.41291642,nan,2,2,0,0
77282224,77277873,40.15481205,116.2632747,99.631,99.622375,0.001701995,0.34919474,0.41251832,nan,2,2,0,0
77474545,77470451,40.15481317,116.263304,99.63222,99.62481,0.001701995,0.3476685,0.41220766,nan,2,2,0,0
77674437,77670202,40.15481434,116.2633345,99.63064,99.622696,0.001701995,0.3460772,0.41183394,nan,2,2,0,0
77877935,77873516,40.15481561,116.2633654,99.62886,99.62034,0.001701995,0.34486505,0.41155702,nan,2,2,0,0
78078627,78074197,40.15481694,116.263396,99.62485,99.616104,0.001701995,0.3445827,0.4115765,nan,2,2,0,0
78282389,78278052,40.15481825,116.2634271,99.62271,99.61457,0.001701995,0.34373835,0.41139224,nan,2,2,0,0
78473821,78469614,40.15481944,116.2634563,99.6236,99.61535,0.001701995,0.34587878,0.41175374,nan,2,2,0,0
78674182,78670115,40.15482069,116.2634868,99.62326,99.616615,0.001701995,0.34541738,0.41168252,nan,2,2,0,0
78878127,78874110,40.15482203,116.2635179,99.62752,99.62091,0.001701995,0.34507653,0.41163775,nan,2,2,0,0
79074360,79070300,40.15482338,116.2635478,99.62886,99.62238,0.001701995,0.34160507,0.41130355,nan,2,2,0,0
79278508,79274181,40.1548249,116.2635788,99.63214,99.62584,0.001701995,0.34208357,0.41112164,nan,2,2,0,0
79478201,79473764,40.15482645,116.2636092,99.63367,99.627556,0.001701995,0.3421265,0.411547,nan,2,2,0,0
79674364,79669958,40.15482798,116.2636391,99.635056,99.630066,0.001701995,0.34480977,0.4116628,nan,2,2,0,0
79878562,79874272,40.15482945,116.2636702,99.63643,99.63128,0.001701995,0.3417425,0.41142204,nan,2,2,0,0
80077576,80073730,40.15483086,116.2637006,99.633965,99.630936,0.001701995,0.34452257,0.41157442,nan,2,2,0,0
80278601,80274316,40.15483222,116.2637311,99.635666,99.63203,0.001701995,0.34410322,0.41143274,nan,2,2,0,0
80474026,80469750,40.15483349,116.2637608,99.63548,99.63383,0.001701995,0.3437876,0.41171876,nan,2,2,0,0
80674526,80670303,40.15483478,116.2637913,99.63736,99.63505,0.001701995,0.34110036,0.41116044,nan,2,2,0,0
80878016,80873924,40.15483614,116.2638223,99.64006,99.64004,0.001701995,0.34118,0.4115502,nan,2,2,0,0
81073997,81069565,40.15483744,116.2638521,99.64248,99.6437,0.001701995,0.34094194,0.41142926,nan,2,2,0,0
81274151,81270021,40.15483879,116.2638827,99.643394,99.64553,0.001701995,0.34203732,0.41138488,nan,2,2,0,0
81479058,81474275,40.15484023,116.2639138,99.64676,99.65049,0.001701995,0.34188348,0.41169274,nan,2,2,0,0
81674333,81670247,40.15484169,116.2639437,99.64932,99.652115,0.001701995,0.34263125,0.41192174,nan,2,2,0,0
81874385,81869928,40.15484331,116.2639741,99.64943,99.65337,0.001701995,0.34223473,0.41172385,nan,2,2,0,0
82077683,82073402,40.1548451,116.2640051,99.650345,99.65442,0.001701995,0.34491843,0.41178107,nan,2,2,0,0
82275035,82270242,40.15484697,116.2640351,99.65231,99.65699,0.001701995,0.34207287,0.41157544,nan,2,2,0,0
82478847,82474903,40.15484907,116.2640662,99.6525,99.658455,0.001701995,0.34180152,0.41142806,nan,2,2,0,0
82678207,82673804,40.15485121,116.2640965,99.64592,99.65081,0.001701995,0.345219,0.4117334,nan,2,2,0,0
82878899,82874232,40.15485334,116.2641269,99.64165,99.646736,0.001701995,0.3416663,0.41130036,nan,2,2,0,0
83074542,83070600,40.1548555,116.2641567,99.63463,99.63834,0.001701995,0.34180987,0.4113148,nan,2,2,0,0
83274246,83270129,40.15485776,116.264187,99.62776,99.630005,0.001701995,0.34187955,0.4117001,nan,2,2,0,0
83474101,83469735,40.15486005,116.2642174,99.624054,99.62591,0.001701995,0.34164575,0.4115791,nan,2,2,0,0
83677608,83673881,40.15486243,116.2642484,99.624725,99.626915,0.001701995,0.34437197,0.41168314,nan,2,2,0,0
83878505,83873977,40.15486483,116.2642788,99.62613,99.628,0.001701995,0.34170666,0.4115303,nan,2,2,0,0
84074521,84069473,40.15486725,116.2643085,99.62544,99.62766,0.001701995,0.3441058,0.41153064,nan,2,2,0,0
84278497,84274338,40.1548699,116.2643396,99.62866,99.63168,0.001701995,0.34410912,0.4114988,nan,2,2,0,0
84474473,84470209,40.15487251,116.2643693,99.62829,99.631516,0.001701995,0.34159592,0.41139904,nan,2,2,0,0
84673971,84669650,40.15487524,116.2643995,99.63434,99.638405,0.001701995,0.34440634,0.41152486,nan,2,2,0,0
84878677,84874444,40.15487803,116.2644306,99.63754,99.64337,0.001701995,0.3447185,0.41158828,nan,2,2,0,0
85070403,85065814,40.15488063,116.2644596,99.6403,99.64611,0.001701995,0.34493613,0.411627,nan,2,2,0,0
85282589,85278103,40.15488355,116.2644918,99.640656,99.64547,0.001701995,0.3421366,0.4114479,nan,2,2,0,0
85473898,85469900,40.1548862,116.2645209,99.64264,99.64673,0.001701995,0.34458426,0.41185188,nan,2,2,0,0
85678499,85674749,40.15488905,116.264552,99.64395,99.64847,0.001701995,0.34164995,0.41120604,nan,2,2,0,0
85878391,85874193,40.15489177,116.2645822,99.64345,99.64832,0.001701995,0.34188595,0.41165105,nan,2,2,0,0
86081806,86077621,40.15489453,116.264613,99.643814,99.650406,0.001701995,0.34500122,0.41187665,nan,2,2,0,0
86274681,86270831,40.15489714,116.2646423,99.6451,99.65208,0.001701995,0.34189346,0.411581,nan,2,2,0,0
86478463,86473918,40.15489989,116.2646731,99.64267,99.65108,0.001701995,0.3422767,0.41168007,nan,2,2,0,0
86682748,86677564,40.15490277,116.264704,99.64081,99.64723,0.001701995,0.34166497,0.41142195,nan,2,2,0,0
86882649,86877629,40.15490563,116.2647342,99.63372,99.64046,0.001701995,0.34154215,0.4113338,nan,2,2,0,0
87082428,87078080,40.15490838,116.2647647,99.63073,99.63913,0.001701995,0.341777,0.41137698,nan,2,2,0,0
87282079,87278077,40.15491089,116.264795,99.628944,99.63804,0.001701995,0.34201524,0.41142556,nan,2,2,0,0
87474471,87470325,40.15491309,116.2648242,99.625885,99.6341,0.001701995,0.34153134,0.41160747,nan,2,2,0,0
87671279,87665546,40.15491525,116.2648538,99.62373,99.63326,0.001701995,0.34170154,0.41162845,nan,2,2,0,0
87874269,87871000,40.15491749,116.264885,99.62276,99.63024,0.001701995,0.3418283,0.41163296,nan,2,2,0,0
88082379,88078273,40.15491974,116.2649165,99.6207,99.62737,0.001701995,0.34222266,0.41173503,nan,2,2,0,0
88282590,88277927,40.15492203,116.2649468,99.61939,99.62563,0.001701995,0.34195033,0.41159132,nan,2,2,0,0
88482394,88477392,40.15492438,116.2649771,99.619705,99.62685,0.001701995,0.3417355,0.41147324,nan,2,2,0,0
88677553,88673326,40.15492678,116.2650068,99.62135,99.62941,0.001701995,0.34481323,0.41168258,nan,2,2,0,0
88870265,88865892,40.15492931,116.265036,99.625916,99.63491,0.001701995,0.34494767,0.41168723,nan,2,2,0,0
89069690,89065591,40.15493206,116.2650662,99.63002,99.64077,0.001701995,0.34467256,0.41197944,nan,2,2,0,0
89274277,89270074,40.15493506,116.2650971,99.635864,99.64625,0.001701995,0.3418364,0.4117666,nan,2,2,0,0
89473938,89469679,40.1549382,116.2651273,99.640396,99.64925,0.001701995,0.34159523,0.41163573,nan,2,2,0,0
89682402,89677917,40.15494177,116.2651587,99.646454,99.65685,0.001701995,0.34206206,0.4113627,nan,2,2,0,0
89873677,89869438,40.15494531,116.2651876,99.65126,99.66178,0.001701995,0.34476647,0.4118453,nan,2,2,0,0
90082279,90077905,40.15494948,116.265219,99.6526,99.662796,0.001701995,0.34194735,0.4116422,nan,2,2,0,0
90271938,90265626,40.15495344,116.2652472,99.65665,99.66652,0.001701995,0.34171337,0.4115152,nan,2,2,0,0
90474401,90470352,40.15495811,116.2652778,99.65968,99.6701,0.001701995,0.34181306,0.41149965,nan,2,2,0,0
90677860,90673800,40.15496307,116.2653082,99.66159,99.670555,0.001701995,0.34187979,0.411478,nan,2,2,0,0
90882379,90878130,40.15496839,116.2653386,99.66286,99.670715,0.001701995,0.34225217,0.41156724,nan,2,2,0,0
91074840,91069950,40.15497363,116.265367,99.66197,99.66864,0.001701995,0.34167123,0.41132158,nan,2,2,0,0
91282552,91278522,40.15497953,116.2653979,99.658165,99.66597,0.001701995,0.3418071,0.41133252,nan,2,2,0,0
91478176,91473842,40.15498527,116.2654268,99.657234,99.66547,0.001701995,0.34191808,0.41173118,nan,2,2,0,0
91678264,91674263,40.15499136,116.2654563,99.65793,99.66776,0.001701995,0.34168383,0.41160408,nan,2,2,0,0
91878640,91875497,40.15499777,116.2654858,99.65739,99.66514,0.001701995,0.3412194,0.41139862,nan,2,2,0,0
92070077,92065607,40.15500408,116.2655136,99.65396,99.66384,0.001701995,0.34439507,0.41166034,nan,2,2,0,0
92282818,92278936,40.15501128,116.2655447,99.65486,99.66535,0.001701995,0.3414185,0.4113976,nan,2,2,0,0
92482398,92478115,40.1550181,116.2655738,99.65169,99.66316,0.001701995,0.3442974,0.4115501,nan,2,2,0,0
92674537,92670755,40.15502467,116.2656019,99.648285,99.65942,0.001701995,0.34117872,0.41124442,nan,2,2,0,0
92882310,92877756,40.15503178,116.2656321,99.646965,99.6591,0.001701995,0.34150478,0.41132703,nan,2,2,0,0
93078988,93073883,40.15503853,116.2656607,99.645676,99.65862,0.001701995,0.3414841,0.41128018,nan,2,2,0,0
93278822,93274136,40.15504553,116.2656898,99.64526,99.65681,0.001701995,0.34209585,0.41146162,nan,2,2,0,0
93469813,93465505,40.15505232,116.2657176,99.64192,99.652954,0.001701995,0.34452718,0.41186526,nan,2,2,0,0
93674146,93670001,40.15505976,116.2657472,99.63696,99.64628,0.001701995,0.3418808,0.4113207,nan,2,2,0,0
93882574,93878216,40.15506756,116.2657773,99.637314,99.645874,0.001701995,0.34236556,0.41144642,nan,2,2,0,0
94078899,94075220,40.1550752,116.2658056,99.63924,99.64818,0.001701995,0.34475783,0.4118197,nan,2,2,0,0
94282267,94277661,40.15508332,116.2658346,99.6422,99.651634,0.001701995,0.3419738,0.41163835,nan,2,2,0,0
94478169,94473495,40.1550914,116.2658626,99.64075,99.64969,0.001701995,0.34150144,0.41142684,nan,2,2,0,0
94678269,94674726,40.15509991,116.2658912,99.6401,99.64834,0.001701995,0.34176123,0.41149396,nan,2,2,0,0
94874279,94870220,40.15510839,116.2659189,99.63763,99.64519,0.001701995,0.34454802,0.4116095,nan,2,2,0,0
95078427,95074376,40.1551175,116.2659477,99.637085,99.6441,0.001701995,0.34159634,0.41136244,nan,2,2,0,0
95278657,95275583,40.15512677,116.2659759,99.63765,99.64373,0.001701995,0.34151176,0.41129306,nan,2,2,0,0
95482699,95478603,40.15513633,116.2660043,99.63473,99.63848,0.001701995,0.34503087,0.4120706,nan,2,2,0,0
95674544,95670288,40.15514547,116.266031,99.62932,99.63278,0.001701995,0.3415954,0.4112517,nan,2,2,0,0
95877817,95873750,40.15515527,116.2660593,99.62572,99.62978,0.001701995,0.34475085,0.4119038,nan,2,2,0,0
96078383,96074150,40.15516505,116.2660871,99.622375,99.62616,0.001701995,0.34205922,0.4113514,nan,2,2,0,0
96275315,96269341,40.15517467,116.2661141,99.61978,99.62274,0.001701995,0.34157804,0.41154557,nan,2,2,0,0
96478403,96474272,40.15518485,116.2661424,99.6145,99.617516,0.001701995,0.34237736,0.41179782,nan,2,2,0,0
96674249,96669253,40.15519465,116.2661692,99.61664,99.61963,0.001701995,0.34506372,0.4118655,nan,2,2,0,0
96878435,96873626,40.15520522,116.2661971,99.61749,99.618515,0.001701995,0.34157565,0.41144082,nan,2,2,0,0
97081741,97077637,40.15521603,116.2662249,99.61791,99.618645,0.001701995,0.3418079,0.41149467,nan,2,2,0,0
97270309,97265793,40.15522615,116.2662504,99.61635,99.616776,0.001701995,0.34198588,0.41152716,nan,2,2,0,0
97474207,97470051,40.15523718,116.266278,99.620224,99.62193,0.001701995,0.34231964,0.41160578,nan,2,2,0,0
97678505,97674157,40.15524838,116.2663055,99.622475,99.62373,0.001701995,0.34527427,0.41217393,nan,2,2,0,0
97882125,97877666,40.15525973,116.2663328,99.62569,99.627205,0.001701995,0.34194455,0.41178963,nan,2,2,0,0
98082184,98077937,40.15527123,116.2663595,99.62738,99.629265,0.001701995,0.3423504,0.41147843,nan,2,2,0,0
98282191,98278222,40.15528303,116.266386,99.63055,99.63272,0.001701995,0.3426541,0.4115392,nan,2,2,0,0
98482142,98477814,40.15529506,116.2664121,99.631775,99.632576,0.001701995,0.34254378,0.41186866,nan,2,2,0,0
98673525,98669241,40.15530684,116.266437,99.63057,99.63187,0.001701995,0.34513575,0.41188732,nan,2,2,0,0
98874078,98870244,40.15531945,116.2664628,99.62532,99.626114,0.001701995,0.3421235,0.4116317,nan,2,2,0,0
99074315,99070122,40.15533228,116.2664883,99.622635,99.621056,0.001701995,0.34504607,0.41177046,nan,2,2,0,0
99282598,99278238,40.15534587,116.2665147,99.615616,99.61421,0.001701995,0.34174067,0.41141543,nan,2,2,0,0
99478142,99473570,40.15535891,116.2665392,99.611824,99.60914,0.001701995,0.34152272,0.41129652,nan,2,2,0,0
99681968,99677420,40.15537273,116.2665646,99.60732,99.60397,0.001701995,0.341043,0.41148064,nan,2,2,0,0
99870659,99865914,40.15538574,116.2665878,99.60167,99.598816,0.001701995,0.34074947,0.41133845,nan,2,2,0,0
100077829,100073419,40.15540025,116.2666133,99.60072,99.597534,0.001701995,0.34110057,0.41143644,nan,2,2,0,0
100274177,100269713,40.15541408,116.2666372,99.59747,99.59302,0.001701995,0.34138474,0.4115089,nan,2,2,0,0
100473478,100469335,40.1554282,116.2666615,99.59442,99.59105,0.001701995,0.34450206,0.41175216,nan,2,2,0,0
100677978,100673398,40.15544273,116.2666861,99.593445,99.59064,0.001701995,0.34149092,0.4114821,nan,2,2,0,0
100881940,100877187,40.15545744,116.2667106,99.5959,99.593445,0.001701995,0.34138313,0.4114103,nan,2,2,0,0
101073950,101069797,40.15547157,116.2667335,99.597565,99.59467,0.001701995,0.34457117,0.41166845,nan,2,2,0,0
101275336,101269734,40.15548651,116.266757,99.59751,99.594536,0.001701995,0.3448107,0.4117106,nan,2,2,0,0
101478094,101474906,40.1555021,116.2667807,99.59917,99.597374,0.001701995,0.34140876,0.41131893,nan,2,2,0,0
101678374,101673765,40.15551744,116.2668035,99.59915,99.59893,0.001701995,0.3416554,0.41137227,nan,2,2,0,0
101877509,101873305,40.15553297,116.2668262,99.59892,99.597595,0.001701995,0.34444597,0.41190377,nan,2,2,0,0
102082018,102077772,40.15554906,116.2668492,99.59806,99.59521,0.001701995,0.34441924,0.4118623,nan,2,2,0,0
102278332,102273717,40.15556471,116.266871,99.598694,99.59654,0.001701995,0.34122744,0.4115127,nan,2,2,0,0
102477638,102473211,40.15558092,116.2668928,99.60047,99.59634,0.001701995,0.3441416,0.41170102,nan,2,2,0,0
102670363,102666011,40.15559673,116.2669136,99.60271,99.59961,0.001701995,0.3442395,0.41170457,nan,2,2,0,0
102878359,102873793,40.15561392,116.2669359,99.60658,99.60312,0.001701995,0.34110376,0.41137192,nan,2,2,0,0
103077439,103076202,40.15563079,116.2669576,99.60666,99.60307,0.001701995,0.34439117,0.4116779,nan,2,2,0,0
103274016,103269976,40.15564704,116.2669782,99.607254,99.60295,0.001701995,0.34158316,0.41147158,nan,2,2,0,0
103481551,103477270,40.15566452,116.2670002,99.60808,99.60288,0.001701995,0.34481242,0.41173434,nan,2,2,0,0
103678039,103674379,40.15568118,116.267021,99.60808,99.60333,0.001701995,0.34187728,0.4115049,nan,2,2,0,0
103882641,103878092,40.15569845,116.2670425,99.60712,99.60194,0.001701995,0.342446,0.4116649,nan,2,2,0,0
104081627,104077115,40.15571527,116.2670635,99.608734,99.60272,0.001701995,0.34222832,0.4115438,nan,2,2,0,0
104270035,104265857,40.15573121,116.2670835,99.60838,99.60318,0.001701995,0.34534657,0.41217205,nan,2,2,0,0
104477761,104473559,40.15574875,116.2671054,99.61038,99.60698,0.001701995,0.34176567,0.41169873,nan,2,2,0,0
104673317,104669154,40.15576537,116.267126,99.61331,99.61017,0.001701995,0.34523612,0.41204634,nan,2,2,0,0
104882226,104877528,40.15578314,116.2671478,99.61387,99.60856,0.001701995,0.34259376,0.41150692,nan,2,2,0,0
105082519,105078112,40.15580026,116.2671688,99.613014,99.60893,0.001701995,0.34195215,0.4116444,nan,2,2,0,0
105281977,105277373,40.15581726,116.2671898,99.615005,99.61105,0.001701995,0.34501556,0.41184697,nan,2,2,0,0
105481772,105477356,40.15583429,116.2672107,99.61473,99.61058,0.001701995,0.3419008,0.4115521,nan,2,2,0,0
105670652,105665856,40.15585023,116.2672306,99.61357,99.60986,0.001701995,0.34173012,0.41145954,nan,2,2,0,0
105877794,105875765,40.15586797,116.2672528,99.61279,99.61088,0.001701995,0.3418512,0.4114687,nan,2,2,0,0
106074596,106070118,40.15588444,116.2672733,99.61368,99.6127,0.001701995,0.34166533,0.41136926,nan,2,2,0,0
106282095,106277617,40.15590208,116.2672951,99.61435,99.61347,0.001701995,0.3417882,0.4113802,nan,2,2,0,0
106482320,106478288,40.15591923,116.2673161,99.61398,99.61219,0.001701995,0.34454998,0.41190034,nan,2,2,0,0
106682531,106677826,40.15593627,116.2673369,99.614426,99.61174,0.001701995,0.34155682,0.41123754,nan,2,2,0,0
106879037,106874216,40.15595305,116.2673573,99.61412,99.61049,0.001701995,0.34150916,0.41118968,nan,2,2,0,0
107074263,107069999,40.15596982,116.2673777,99.609985,99.60431,0.001701995,0.34142616,0.41152212,nan,2,2,0,0
107277586,107273405,40.15598726,116.2673988,99.6115,99.606,0.001701995,0.34456128,0.41177502,nan,2,2,0,0
107477779,107473587,40.15600435,116.2674196,99.613235,99.60757,0.001701995,0.34158215,0.4115163,nan,2,2,0,0
107681736,107677456,40.15602179,116.2674408,99.61364,99.608154,0.001701995,0.34148172,0.41144094,nan,2,2,0,0
107882048,107877810,40.1560389,116.2674616,99.614395,99.60892,0.001701995,0.34142664,0.4113768,nan,2,2,0,0
108073406,108069321,40.15605528,116.2674816,99.614914,99.60929,0.001701995,0.34393844,0.41141602,nan,2,2,0,0
108277977,108274024,40.15607272,116.2675031,99.615746,99.610016,0.001701995,0.34148225,0.41132414,nan,2,2,0,0
108469533,108465375,40.15608892,116.2675232,99.6151,99.60909,0.001701995,0.34431657,0.41146472,nan,2,2,0,0
108674262,108669799,40.15610611,116.2675448,99.614006,99.60745,0.001701995,0.34145632,0.4112484,nan,2,2,0,0
108873614,108869102,40.15612275,116.2675661,99.61366,99.60543,0.001701995,0.34465775,0.41192323,nan,2,2,0,0
109074184,109069113,40.15613931,116.2675876,99.61274,99.60547,0.001701995,0.34491056,0.41197374,nan,2,2,0,0
109274306,109269537,40.1561557,116.2676095,99.6134,99.605675,0.001701995,0.3450989,0.41200262,nan,2,2,0,0
109482271,109478006,40.15617274,116.2676322,99.61086,99.601845,0.001701995,0.34227237,0.41140258,nan,2,2,0,0
109674476,109670291,40.15618847,116.2676532,99.609085,99.60101,0.001701995,0.3420817,0.41169897,nan,2,2,0,0
109873541,109869049,40.15620476,116.2676749,99.604034,99.59597,0.001701995,0.3451374,0.41189685,nan,2,2,0,0
110069917,110065343,40.15622086,116.2676963,99.59742,99.58901,0.001701995,0.34519446,0.41187853,nan,2,2,0,0
110277501,110273128,40.15623795,116.2677189,99.59123,99.58086,0.001701995,0.3416168,0.41142243,nan,2,2,0,0
110473698,110469337,40.15625406,116.2677404,99.589035,99.57807,0.001701995,0.3420593,0.41155338,nan,2,2,0,0
110674027,110669783,40.15627046,116.2677623,99.586,99.574066,0.001701995,0.34238267,0.41162896,nan,2,2,0,0
110882597,110878153,40.1562874,116.2677851,99.58236,99.57161,0.001701995,0.34171426,0.41135353,nan,2,2,0,0
111082109,111077512,40.15630359,116.2678071,99.57956,99.568054,0.001701995,0.34181336,0.41135207,nan,2,2,0,0
111278083,111273600,40.15631947,116.2678287,99.57567,99.56425,0.001701995,0.34189433,0.41174403,nan,2,2,0,0
111474051,111469763,40.15633529,116.2678505,99.57478,99.56469,0.001701995,0.34164768,0.41161975,nan,2,2,0,0
111678000,111673062,40.15635165,116.267873,99.57524,99.5649,0.001701995,0.34173802,0.41161567,nan,2,2,0,0
111877876,111873150,40.15636777,116.2678951,99.57233,99.560104,0.001701995,0.3415251,0.4115118,nan,2,2,0,0
112077450,112073115,40.15638386,116.2679172,99.567535,99.55499,0.001701995,0.34109375,0.41132262,nan,2,2,0,0
112282346,112277574,40.15640023,116.2679399,99.564644,99.555145,0.001701995,0.34169856,0.41151002,nan,2,2,0,0
112478308,112473908,40.1564159,116.2679618,99.56593,99.5561,0.001701995,0.341559,0.41143075,nan,2,2,0,0
112674573,112670432,40.15643153,116.2679837,99.566795,99.557655,0.001701995,0.34171355,0.41144964,nan,2,2,0,0
112869190,112865188,40.156447,116.2680055,99.56865,99.56011,0.001701995,0.3444226,0.4119566,nan,2,2,0,0
113077869,113073582,40.15646352,116.2680289,99.56938,99.56018,0.001701995,0.34195602,0.41145524,nan,2,2,0,0
113281996,113277438,40.15647962,116.2680518,99.56738,99.56074,0.001701995,0.34196797,0.41142097,nan,2,2,0,0
113478908,113474355,40.15649521,116.268074,99.571686,99.565735,0.001701995,0.3443258,0.4118001,nan,2,2,0,0
113677851,113673575,40.15651108,116.2680963,99.5748,99.5691,0.001701995,0.3416457,0.41162828,nan,2,2,0,0
113878323,113873768,40.15652696,116.2681187,99.581024,99.577034,0.001701995,0.34175164,0.41162458,nan,2,2,0,0
114078046,114073729,40.1565428,116.2681412,99.585045,99.58245,0.001701995,0.3415428,0.41150588,nan,2,2,0,0
114269858,114265337,40.15655792,116.2681628,99.58838,99.58542,0.001701995,0.34462866,0.41173202,nan,2,2,0,0
114470786,114465719,40.15657376,116.2681854,99.593216,99.59003,0.001701995,0.34152952,0.4114267,nan,2,2,0,0
114678015,114673907,40.15659029,116.2682087,99.592316,99.58935,0.001701995,0.3420206,0.411557,nan,2,2,0,0
114881512,114877106,40.1566065,116.2682314,99.59413,99.59113,0.001701995,0.34504107,0.41173673,nan,2,2,0,0
115082061,115077833,40.15662261,116.2682537,99.59545,99.59336,0.001701995,0.34158802,0.41133243,nan,2,2,0,0
115277818,115273556,40.1566384,116.2682754,99.595825,99.594055,0.001701995,0.34149942,0.41126138,nan,2,2,0,0
115478175,115473705,40.15665464,116.2682974,99.59541,99.594154,0.001701995,0.3413965,0.41119274,nan,2,2,0,0
115673786,115669708,40.15667066,116.2683187,99.59667,99.595665,0.001701995,0.34166315,0.41164505,nan,2,2,0,0
115874267,115870914,40.15668721,116.2683405,99.598915,99.598724,0.001701995,0.34178427,0.4116465,nan,2,2,0,0
116078176,116073885,40.15670391,116.2683625,99.60008,99.60013,0.001701995,0.3415887,0.41153124,nan,2,2,0,0
116281380,116277161,40.15672067,116.2683845,99.6053,99.606186,0.001701995,0.3420932,0.4116675,nan,2,2,0,0
116482146,116477246,40.15673717,116.2684062,99.607834,99.61043,0.001701995,0.3424286,0.4117539,nan,2,2,0,0
116682183,116677879,40.15675365,116.2684281,99.6091,99.61193,0.001701995,0.34210163,0.41159588,nan,2,2,0,0
116881728,116877140,40.15677002,116.2684497,99.60963,99.610756,0.001701995,0.3418495,0.41146684,nan,2,2,0,0
117070384,117065690,40.15678555,116.2684702,99.606674,99.60865,0.001701995,0.3416556,0.41135427,nan,2,2,0,0
117274130,117270208,40.1568024,116.2684925,99.60266,99.60419,0.001701995,0.3420899,0.41147333,nan,2,2,0,0
117482248,117477564,40.15681946,116.268515,99.602295,99.60436,0.001701995,0.342075,0.41143343,nan,2,2,0,0
117682018,117677788,40.15683593,116.2685368,99.601456,99.603935,0.001701995,0.34242553,0.4115186,nan,2,2,0,0
117877723,117873518,40.15685206,116.268558,99.60088,99.60227,0.001701995,0.34176135,0.41165233,nan,2,2,0,0
118082200,118077756,40.15686891,116.2685802,99.60074,99.60479,0.001701995,0.34183598,0.41125008,nan,2,2,0,0
118277760,118274170,40.15688511,116.2686015,99.600235,99.60407,0.001701995,0.34161252,0.41153097,nan,2,2,0,0
118474102,118469958,40.15690131,116.2686226,99.60173,99.60462,0.001701995,0.34172627,0.411539,nan,2,2,0,0
118670028,118665314,40.15691749,116.2686437,99.6009,99.60468,0.001701995,0.34472093,0.4117368,nan,2,2,0,0
118873522,118869278,40.15693439,116.2686657,99.60394,99.60809,0.001701995,0.34412208,0.4115014,nan,2,2,0,0
119077452,119073112,40.15695131,116.2686876,99.602646,99.60746,0.001701995,0.34122744,0.41126922,nan,2,2,0,0
119281998,119277420,40.15696831,116.2687094,99.60278,99.60707,0.001701995,0.34177375,0.41143534,nan,2,2,0,0
119477765,119473543,40.15698472,116.2687303,99.601654,99.60707,0.001701995,0.3445231,0.41195273,nan,2,2,0,0
119673831,119668966,40.15700113,116.268751,99.60142,99.607254,0.001701995,0.34147832,0.4112571,nan,2,2,0,0
119878124,119873653,40.15701838,116.2687726,99.600845,99.60488,0.001701995,0.34218505,0.4118798,nan,2,2,0,0
120077139,120073054,40.15703522,116.2687936,99.59987,99.60308,0.001701995,0.34479985,0.41193,nan,2,2,0,0
120282304,120277103,40.15705245,116.2688152,99.59589,99.59781,0.001701995,0.34455612,0.41180933,nan,2,2,0,0
120477802,120473355,40.15706901,116.2688358,99.59088,99.594025,0.001701995,0.34151322,0.4115128,nan,2,2,0,0
120682170,120677458,40.15708623,116.2688574,99.58609,99.5882,0.001701995,0.34166184,0.41152474,nan,2,2,0,0
120878388,120874154,40.15710283,116.2688781,99.583305,99.58531,0.001701995,0.3415057,0.41142204,nan,2,2,0,0
121077859,121073499,40.15711959,116.2688992,99.585205,99.58859,0.001701995,0.341358,0.41132563,nan,2,2,0,0
121277702,121273303,40.15713633,116.2689206,99.58778,99.59218,0.001701995,0.34127626,0.4112646,nan,2,2,0,0
121474336,121470256,40.15715272,116.2689418,99.59079,99.59669,0.001701995,0.34121025,0.41120324,nan,2,2,0,0
121677141,121672956,40.1571695,116.2689637,99.591965,99.598,0.001701995,0.3443433,0.41185713,nan,2,2,0,0
121873140,121869173,40.15718563,116.268985,99.59352,99.59887,0.001701995,0.34461495,0.41190982,nan,2,2,0,0
122077477,122073117,40.15720238,116.2690072,99.59225,99.59896,0.001701995,0.34183905,0.41171765,nan,2,2,0,0
122282019,122277470,40.15721914,116.2690294,99.59125,99.59634,0.001701995,0.34196842,0.4113203,nan,2,2,0,0
122474340,122470017,40.15723484,116.2690505,99.59081,99.59622,0.001701995,0.3417532,0.4116033,nan,2,2,0,0
122677694,122673129,40.15725135,116.2690729,99.5898,99.59638,0.001701995,0.34181842,0.41157916,nan,2,2,0,0
122878088,122873614,40.15726766,116.2690949,99.59222,99.59907,0.001701995,0.34189177,0.4115673,nan,2,2,0,0
123082614,123076824,40.15728416,116.2691173,99.5909,99.598724,0.001701995,0.34134343,0.4113372,nan,2,2,0,0
123277930,123274263,40.15730012,116.2691391,99.5894,99.59719,0.001701995,0.3415544,0.41137394,nan,2,2,0,0
123477525,123473399,40.1573162,116.2691612,99.58801,99.59656,0.001701995,0.34496742,0.4116967,nan,2,2,0,0
123678189,123673683,40.15733236,116.2691833,99.58539,99.59183,0.001701995,0.34150356,0.41128355,nan,2,2,0,0
123878424,123873693,40.15734852,116.2692054,99.58165,99.587296,0.001701995,0.3413871,0.41121235,nan,2,2,0,0
124077429,124073198,40.15736467,116.2692273,99.58096,99.58773,0.001701995,0.3441737,0.41175148,nan,2,2,0,0
124273477,124268946,40.15738061,116.2692486,99.58342,99.590294,0.001701995,0.34100193,0.4113989,nan,2,2,0,0
124473389,124468913,40.15739701,116.2692703,99.58504,99.5909,0.001701995,0.3445359,0.4117931,nan,2,2,0,0
124673826,124669512,40.15741359,116.2692919,99.58577,99.59272,0.001701995,0.34178683,0.41159946,nan,2,2,0,0
124877090,124873872,40.1574306,116.2693138,99.58621,99.59279,0.001701995,0.34451568,0.4116958,nan,2,2,0,0
125078180,125073890,40.15744738,116.2693352,99.58671,99.59305,0.001701995,0.34149632,0.4114108,nan,2,2,0,0
125278209,125273749,40.15746426,116.2693563,99.58864,99.59504,0.001701995,0.34167883,0.4114378,nan,2,2,0,0
125469830,125465228,40.15748055,116.2693764,99.58909,99.59587,0.001701995,0.3447601,0.41206583,nan,2,2,0,0
125669494,125665236,40.15749779,116.2693971,99.59306,99.59985,0.001701995,0.34423348,0.4118345,nan,2,2,0,0
125881454,125877699,40.1575163,116.2694188,99.5972,99.60544,0.001701995,0.34222895,0.41149083,nan,2,2,0,0
126073594,126069206,40.15753313,116.2694382,99.59587,99.603775,0.001701995,0.34168616,0.41165727,nan,2,2,0,0
126281720,126277152,40.15755153,116.2694591,99.59816,99.60524,0.001701995,0.34180275,0.41165784,nan,2,2,0,0
126477964,126473775,40.15756911,116.2694785,99.59952,99.60615,0.001701995,0.34195635,0.41166812,nan,2,2,0,0
126673509,126669299,40.15758672,116.2694976,99.59915,99.60515,0.001701995,0.3446816,0.41174918,nan,2,2,0,0
126877867,126873666,40.15760533,116.2695171,99.59807,99.604866,0.001701995,0.34192252,0.411565,nan,2,2,0,0
127073166,127068859,40.15762328,116.2695355,99.59688,99.60273,0.001701995,0.34433827,0.4115569,nan,2,2,0,0
127282119,127277265,40.1576426,116.2695548,99.59764,99.6029,0.001701995,0.3416788,0.4114146,nan,2,2,0,0
127482472,127477756,40.15766135,116.2695731,99.597626,99.60328,0.001701995,0.34157845,0.4113422,nan,2,2,0,0
127681713,127677277,40.15768017,116.269591,99.59652,99.60118,0.001701995,0.3447529,0.4119959,nan,2,2,0,0
127881656,127876877,40.15769915,116.2696087,99.59245,99.596214,0.001701995,0.34112927,0.4114908,nan,2,2,0,0
128077866,128073659,40.15771809,116.2696258,99.589485,99.59374,0.001701995,0.34120673,0.41148365,nan,2,2,0,0
128277296,128272933,40.1577374,116.2696429,99.58946,99.59356,0.001701995,0.34122598,0.41144618,nan,2,2,0,0
128477695,128473349,40.15775699,116.2696598,99.59081,99.595795,0.001701995,0.34155726,0.41152692,nan,2,2,0,0
128682449,128677735,40.15777712,116.2696767,99.594604,99.59979,0.001701995,0.34442255,0.41167563,nan,2,2,0,0
128878048,128873530,40.15779657,116.2696925,99.59595,99.60034,0.001701995,0.34413138,0.41153896,nan,2,2,0,0
129081873,129077485,40.15781699,116.2697087,99.59259,99.59486,0.001701995,0.34168804,0.41145545,nan,2,2,0,0
129273182,129268852,40.15783635,116.2697235,99.59009,99.59128,0.001701995,0.34461594,0.4116066,nan,2,2,0,0
129473763,129469345,40.15785679,116.2697388,99.58925,99.59092,0.001701995,0.341657,0.41135588,nan,2,2,0,0
129673823,129669136,40.15787726,116.2697536,99.588776,99.59058,0.001701995,0.3418869,0.4113911,nan,2,2,0,0
129881227,129876952,40.1578987,116.2697686,99.58852,99.590645,0.001701995,0.34238362,0.41152486,nan,2,2,0,0
130081927,130077358,40.1579195,116.2697828,99.58536,99.58656,0.001701995,0.34248403,0.41151202,nan,2,2,0,0
130277381,130272918,40.15793991,116.2697963,99.58458,99.58556,0.001701995,0.34522736,0.41200235,nan,2,2,0,0
130473789,130469520,40.15796059,116.2698093,99.583954,99.586044,0.001701995,0.3420275,0.4116845,nan,2,2,0,0
130681600,130677172,40.15798261,116.2698227,99.5845,99.5888,0.001701995,0.3424092,0.4117716,nan,2,2,0,0
130878084,130873707,40.15800363,116.2698348,99.58525,99.58924,0.001701995,0.34182528,0.41151255,nan,2,2,0,0
131074157,131068893,40.15802465,116.2698464,99.58348,99.58821,0.001701995,0.34456143,0.41160393,nan,2,2,0,0
131273092,131269643,40.15804635,116.2698581,99.578896,99.58441,0.001701995,0.34445766,0.4115303,nan,2,2,0,0
131483248,131476774,40.15806887,116.2698698,99.57486,99.58042,0.001701995,0.34147787,0.411272,nan,2,2,0,0
131674090,131668687,40.1580898,116.2698804,99.57219,99.577415,0.001701995,0.3439661,0.41171014,nan,2,2,0,0
131877469,131873107,40.15811221,116.2698911,99.572495,99.57828,0.001701995,0.34146816,0.41159803,nan,2,2,0,0
132073780,132069697,40.1581339,116.2699011,99.57183,99.57745,0.001701995,0.3414298,0.4115459,nan,2,2,0,0
132277756,132273747,40.15815652,116.2699111,99.57013,99.575874,0.001701995,0.34167337,0.41159174,nan,2,2,0,0
132477284,132472796,40.15817869,116.2699204,99.567566,99.57287,0.001701995,0.34185246,0.41161498,nan,2,2,0,0
132677163,132672973,40.15820107,116.2699294,99.56439,99.570564,0.001701995,0.34531096,0.41194296,nan,2,2,0,0
132881726,132877352,40.15822402,116.2699381,99.5641,99.56779,0.001701995,0.34264034,0.41181272,nan,2,2,0,0
133077248,133072894,40.15824605,116.2699461,99.558014,99.56082,0.001701995,0.34529677,0.41183898,nan,2,2,0,0
133282061,133277161,40.15826923,116.2699539,99.55588,99.55764,0.001701995,0.342292,0.41158855,nan,2,2,0,0
133473599,133469082,40.15829106,116.2699608,99.55043,99.551476,0.001701995,0.34499282,0.41165212,nan,2,2,0,0
133673374,133668917,40.15831385,116.2699676,99.54526,99.54579,0.001701995,0.34178573,0.41133857,nan,2,2,0,0
133877315,133872851,40.15833722,116.269974,99.53936,99.53856,0.001701995,0.34186444,0.41133457,nan,2,2,0,0
134074165,134069469,40.15835981,116.2699797,99.53637,99.53516,0.001701995,0.34192505,0.41132694,nan,2,2,0,0
134273018,134268961,40.15838277,116.2699848,99.53749,99.535805,0.001701995,0.3445801,0.41180807,nan,2,2,0,0
134473657,134469462,40.158406,116.2699894,99.53691,99.53591,0.001701995,0.34179857,0.41162226,nan,2,2,0,0
