timestamp,timestamp_sample,lat,lon,alt,alt_ellipsoid,delta_alt,eph,epv,terrain_alt,lat_lon_reset_counter,alt_reset_counter,terrain_alt_valid,dead_reckoning
53153053,53148821,40.1517789167051,116.25797190537243,49.989697,49.822002,0.16504557,0.76811457,0.84999996,nan,2,2,0,0
53166336,53161097,40.15177891573644,116.25797190493724,49.989674,49.82198,0.16504557,0.7681274,0.850013,nan,2,2,0,0
53353790,53349341,40.15177890105802,116.25797190589954,49.97708,49.81143,0.16504557,0.5074953,0.4558677,nan,2,2,0,0
53553420,53549194,40.1517789180115,116.25797190241997,49.967358,49.803364,0.16504557,0.43778488,0.43157727,nan,2,2,0,0
53749916,53745931,40.15177882004785,116.25797180511438,49.9654,49.80444,0.16504557,0.40468726,0.4231197,nan,2,2,0,0
53953012,53949736,40.1517787621271,116.25797168063181,49.967445,49.80855,0.16504557,0.38571617,0.41929162,nan,2,2,0,0
54154090,54149180,40.151778750747084,116.25797161919404,49.96881,49.81012,0.16504557,0.37374136,0.41834602,nan,2,2,0,0
54349937,54345931,40.151778771658954,116.25797162777441,49.968094,49.810997,0.16504557,0.36515042,0.41669413,nan,2,2,0,0
54553599,54549420,40.15177875985182,116.25797165166625,49.965458,49.808002,0.16504557,0.3594182,0.41594633,nan,2,2,0,0
54753654,54749416,40.151778764963474,116.25797165670036,49.961586,49.80617,0.16504557,0.35500747,0.4152078,nan,2,2,0,0
54945792,54941438,40.15177881792705,116.25797163514096,49.958435,49.80464,0.16504557,0.35197762,0.41482455,nan,2,2,0,0
55150015,55145715,40.15177881355965,116.25797161198481,49.957935,49.80469,0.16504557,0.34965935,0.41442564,nan,2,2,0,0
55349510,55345244,40.15177881956789,116.25797161559677,49.95573,49.80245,0.16504557,0.34735867,0.41375557,nan,2,2,0,0
55553365,55548866,40.15177882465815,116.2579715841359,49.951275,49.799747,0.16504557,0.3455867,0.41319877,nan,2,2,0,0
55750099,55746247,40.15177880659323,116.25797153889793,49.94872,49.800713,0.16504557,0.3442667,0.41276494,nan,2,2,0,0
55953852,55949632,40.15177879393632,116.25797153371025,49.949203,49.80155,0.16504557,0.34411213,0.41276893,nan,2,2,0,0
56145653,56141158,40.15177879741131,116.2579715294127,49.94777,49.80212,0.16504557,0.34292695,0.41272083,nan,2,2,0,0
56345662,56341247,40.15177879682041,116.25797154081334,49.944195,49.800644,0.16504557,0.34255755,0.41247767,nan,2,2,0,0
56553048,56548747,40.15177876905813,116.25797155280958,49.938778,49.796814,0.16504557,0.34268925,0.4119456,nan,2,2,0,0
56745656,56741368,40.15177876098145,116.25797158425017,49.93568,49.79702,0.16504557,0.3459184,0.41254118,nan,2,2,0,0
56945816,56941612,40.15177876924579,116.25797164125876,49.93832,49.80183,0.16504557,0.34269822,0.41209838,nan,2,2,0,0
57153382,57149414,40.15177877635628,116.25797165686605,49.94012,49.804768,0.16504557,0.34258988,0.41191444,nan,2,2,0,0
57353931,57350692,40.15177876822999,116.25797165143776,49.93821,49.803673,0.16504557,0.34323987,0.41157514,nan,2,2,0,0
57553552,57549199,40.151778768889876,116.25797163729641,49.93563,49.80235,0.16504557,0.34272957,0.41170445,nan,2,2,0,0
57750825,57745598,40.15177878481297,116.25797163134602,49.930733,49.797962,0.16504557,0.34399903,0.41199243,nan,2,2,0,0
57953748,57949530,40.151778777774766,116.25797161829084,49.927517,49.797424,0.16504557,0.344515,0.41203982,nan,2,2,0,0
58145532,58141246,40.15177879975996,116.25797160851681,49.92467,49.795807,0.16504557,0.343556,0.4120584,nan,2,2,0,0
58350404,58345635,40.15177885000432,116.25797156271086,49.919804,49.79241,0.16504557,0.3434974,0.4115278,nan,2,2,0,0
58553436,58549435,40.15177888238848,116.2579715554707,49.91788,49.7928,0.16504557,0.342783,0.41164348,nan,2,2,0,0
58745321,58740794,40.15177889034173,116.2579715927212,49.915882,49.793472,0.16504557,0.34261686,0.41153836,nan,2,2,0,0
58950060,58945839,40.15177888442266,116.25797162433682,49.913948,49.79195,0.16504557,0.34275207,0.41153347,nan,2,2,0,0
59145641,59141193,40.15177884864963,116.25797165648451,49.912144,49.791134,0.16504557,0.34253758,0.41142425,nan,2,2,0,0
59349651,59345590,40.15177881431467,116.25797168606309,49.91068,49.793377,0.16504557,0.34276628,0.41145933,nan,2,2,0,0
59549424,59545086,40.151778813161705,116.25797170148616,49.91014,49.793434,0.16504557,0.3425844,0.41137877,nan,2,2,0,0
59754514,59749601,40.15177880664612,116.25797170013783,49.90889,49.79381,0.16504557,0.34286937,0.4114407,nan,2,2,0,0
59953561,59949001,40.15177878961007,116.2579717075865,49.907883,49.796124,0.16504557,0.34271893,0.4113683,nan,2,2,0,0
60149239,60145041,40.151778736904035,116.25797172415338,49.910217,49.799374,0.16504557,0.34293255,0.4118107,nan,2,2,0,0
60353953,60349562,40.1517787075652,116.2579717543124,49.912064,49.802868,0.16504557,0.3434661,0.41153476,nan,2,2,0,0
60553564,60549273,40.15177872051337,116.25797176977821,49.911327,49.80333,0.16504557,0.34345973,0.41191247,nan,2,2,0,0
60749541,60745226,40.15177874139601,116.25797177155219,49.907932,49.800686,0.16504557,0.34278014,0.4116476,nan,2,2,0,0
60950309,60945813,40.15177876989002,116.25797179109867,49.90322,49.79704,0.16504557,0.3428632,0.4116371,nan,2,2,0,0
61145619,61141231,40.15177875710579,116.25797181348135,49.899914,49.7932,0.16504557,0.34258157,0.41151094,nan,2,2,0,0
61349430,61345024,40.15177877755994,116.25797177513967,49.898273,49.793934,0.16504557,0.3423503,0.4113972,nan,2,2,0,0
61553820,61549620,40.15177878550435,116.25797171908916,49.897633,49.79353,0.16504557,0.34291455,0.41155463,nan,2,2,0,0
61753335,61749076,40.151778809715275,116.25797168521093,49.894417,49.792828,0.16504557,0.34267384,0.41144797,nan,2,2,0,0
61953904,61949454,40.15177878999955,116.25797167189873,49.892704,49.793728,0.16504557,0.34253344,0.4113701,nan,2,2,0,0
62153542,62149217,40.1517787725432,116.25797168136704,49.89157,49.793365,0.16504557,0.3424234,0.41170472,nan,2,2,0,0
62349705,62345378,40.151778750709546,116.25797167827788,49.888863,49.792778,0.16504557,0.34195885,0.4115146,nan,2,2,0,0
62553723,62549334,40.151778739673325,116.25797168811526,49.887215,49.793247,0.16504557,0.3429277,0.41140494,nan,2,2,0,0
62753409,62749082,40.15177875724123,116.25797171332817,49.887703,49.79626,0.16504557,0.3427127,0.41170368,nan,2,2,0,0
62949690,62945494,40.151778789240375,116.25797168636933,49.891563,49.801037,0.16504557,0.34318155,0.41182816,nan,2,2,0,0
63153739,63149370,40.15177879262128,116.25797169134303,49.894085,49.80343,0.16504557,0.34317237,0.41178784,nan,2,2,0,0
63353360,63348955,40.151778779620955,116.25797171247217,49.894077,49.805763,0.16504557,0.34252653,0.4115262,nan,2,2,0,0
63545242,63541056,40.1517787456593,116.25797171052137,49.896324,49.809017,0.16504557,0.34238848,0.4114398,nan,2,2,0,0
63753466,63749206,40.15177875996898,116.2579717101794,49.898,49.8122,0.16504557,0.34252796,0.41144577,nan,2,2,0,0
63948977,63944820,40.151778769212896,116.25797171262178,49.89915,49.814293,0.16504557,0.34501585,0.4118386,nan,2,2,0,0
64145665,64141285,40.151778776921724,116.25797171005968,49.898323,49.813362,0.16504557,0.34164742,0.4114763,nan,2,2,0,0
64349531,64345445,40.15177877730828,116.25797168575637,49.894917,49.810593,0.16504557,0.34168288,0.41144723,nan,2,2,0,0
64545732,64541043,40.15177876191763,116.2579716638406,49.89142,49.80725,0.16504557,0.34110314,0.4112119,nan,2,2,0,0
64753174,64748936,40.15177871466764,116.2579716661016,49.88668,49.804512,0.16504557,0.3419571,0.41147456,nan,2,2,0,0
64949580,64945525,40.15177868231644,116.25797166853266,49.88543,49.806335,0.16504557,0.3420535,0.41146436,nan,2,2,0,0
65145398,65141247,40.15177865181536,116.25797166161752,49.88764,49.811996,0.16504557,0.34208786,0.4114402,nan,2,2,0,0
65353530,65349299,40.151778606366456,116.25797162683111,49.88937,49.814007,0.16504557,0.34276754,0.41162434,nan,2,2,0,0
65549361,65545113,40.15177859320486,116.25797156816606,49.888992,49.81604,0.16504557,0.34230712,0.4114253,nan,2,2,0,0
65753317,65748922,40.151778601815494,116.25797151322887,49.88775,49.81562,0.16504557,0.34192586,0.41125688,nan,2,2,0,0
65949541,65945717,40.15177861066102,116.25797148706361,49.887733,49.81662,0.16504557,0.34204173,0.41125536,nan,2,2,0,0
66145091,66140986,40.1517786273163,116.25797145621718,49.89044,49.82078,0.16504557,0.34507006,0.4118275,nan,2,2,0,0
66349066,66345092,40.15177862340477,116.25797140464066,49.89474,49.827656,0.16504557,0.34212196,0.41160995,nan,2,2,0,0
66553716,66549421,40.15177862253593,116.2579713664666,49.89765,49.83013,0.16504557,0.34251076,0.4113041,nan,2,2,0,0
66749149,66744870,40.15177862640248,116.25797136891637,49.898506,49.833485,0.16504557,0.3427894,0.41176736,nan,2,2,0,0
66946208,66941257,40.15177865197066,116.25797140824052,49.899498,49.835064,0.16504557,0.34259716,0.4116595,nan,2,2,0,0
67144974,67140690,40.15177868373978,116.25797142034939,49.901188,49.83625,0.16504557,0.3451143,0.41164345,nan,2,2,0,0
67349221,67344866,40.151778710069614,116.25797143632953,49.90112,49.837967,0.16504557,0.3420679,0.41139618,nan,2,2,0,0
67554023,67549334,40.15177875652146,116.25797148155151,49.900967,49.837654,0.16504557,0.34239778,0.41146842,nan,2,2,0,0
67745427,67741294,40.15177881081666,116.25797151440916,49.90279,49.84041,0.16504557,0.3420104,0.4113008,nan,2,2,0,0
67949960,67945639,40.15177883974703,116.25797152440452,49.904236,49.843025,0.16504557,0.3416795,0.4115421,nan,2,2,0,0
68153427,68149022,40.15177884769766,116.25797153488857,49.905186,49.845737,0.16504557,0.34205267,0.41164365,nan,2,2,0,0
68354070,68349488,40.15177885788294,116.25797153755956,49.90769,49.849953,0.16504557,0.34240326,0.41133186,nan,2,2,0,0
68553243,68549075,40.151778870497374,116.25797153765255,49.90845,49.85067,0.16504557,0.34236664,0.41168642,nan,2,2,0,0
68749853,68747719,40.15177888778387,116.257971545049,49.907738,49.848396,0.16504557,0.34462273,0.41160083,nan,2,2,0,0
68949849,68945384,40.15177889973321,116.25797156229424,49.902035,49.841324,0.16504557,0.3428092,0.41132906,nan,2,2,0,0
69149028,69144840,40.15177887470842,116.25797155144947,49.897373,49.83764,0.16504557,0.34398976,0.41198444,nan,2,2,0,0
69353504,69349241,40.1517788428257,116.25797152465698,49.895958,49.836433,0.16504557,0.34450808,0.41193834,nan,2,2,0,0
69550000,69545309,40.15177881643106,116.25797149684108,49.894913,49.835384,0.16504557,0.34391516,0.41155946,nan,2,2,0,0
69752962,69751795,40.151778820695576,116.25797147560205,49.894043,49.83333,0.16504557,0.3464967,0.41124347,nan,2,2,0,0
69953262,69949033,40.151778808918806,116.25797146738341,49.893383,49.833183,0.16504557,0.34438938,0.41124627,nan,2,2,0,0
70150349,70149817,40.151778797016235,116.25797145738883,49.89409,49.835625,0.16504557,0.34657374,0.41122544,nan,2,2,0,0
70354893,70354339,40.151778806136335,116.25797143822042,49.89147,49.83341,0.16504557,0.3453893,0.41079363,nan,2,2,0,0
70553738,70550092,40.151778830134646,116.25797146211934,49.8916,49.835323,0.16504557,0.34344006,0.41078958,nan,2,2,0,0
70753687,70749357,40.15177886459134,116.25797147210247,49.893726,49.83761,0.16504557,0.34421122,0.41075656,nan,2,2,0,0
70953209,70951501,40.151778889472396,116.25797149814477,49.89432,49.838726,0.16504557,0.34704763,0.41087666,nan,2,2,0,0
71154450,71149850,40.15177890426553,116.25797150794689,49.895092,49.841007,0.16504557,0.34451142,0.4104789,nan,2,2,0,0
71357191,71352847,40.15177892127708,116.25797150280405,49.895397,49.842815,0.16504557,0.3438692,0.4105398,nan,2,2,0,0
71553958,71549754,40.15177890720055,116.25797146659777,49.896095,49.842518,0.16504557,0.3434586,0.4103263,nan,2,2,0,0
71745310,71740747,40.1517789108956,116.25797146157127,49.894676,49.839886,0.16504557,0.34651157,0.41022643,nan,2,2,0,0
71953179,71949589,40.1517789163794,116.25797146077737,49.891438,49.836433,0.16504557,0.3436016,0.4101878,nan,2,2,0,0
72149466,72145016,40.151778917880755,116.25797145729736,49.88973,49.83559,0.16504557,0.34406608,0.41025388,nan,2,2,0,0
72353529,72349456,40.15177891115499,116.25797146743595,49.887737,49.83549,0.16504557,0.34409222,0.4102542,nan,2,2,0,0
72553072,72549004,40.151778886165715,116.25797148667313,49.88686,49.833565,0.16504557,0.34341037,0.41011745,nan,2,2,0,0
72745949,72745173,40.151778853924796,116.25797150765018,49.88547,49.832867,0.16504557,0.34699354,0.41057754,nan,2,2,0,0
72953194,72949579,40.151778802286366,116.25797156509383,49.884903,49.834045,0.16504557,0.34320155,0.41015643,nan,2,2,0,0
73149669,73145301,40.15177875946692,116.25797160565408,49.88862,49.83989,0.16504557,0.34427088,0.41081068,nan,2,2,0,0
73345194,73340925,40.15177871244986,116.25797165230671,49.891453,49.842358,0.16504557,0.34345978,0.41067803,nan,2,2,0,0
73549594,73545164,40.151778702987386,116.25797169248477,49.8929,49.84468,0.16504557,0.34399047,0.41089013,nan,2,2,0,0
73752735,73748814,40.15177872639934,116.25797168284595,49.894516,49.844696,0.16504557,0.34949115,0.41158518,nan,2,2,0,0
73945060,73940812,40.15177873420288,116.25797167708365,49.89543,49.846035,0.16504557,0.3478993,0.41141364,nan,2,2,0,0
74153184,74149002,40.151778760208536,116.25797167559311,49.895966,49.845997,0.16504557,0.34859574,0.41180593,nan,2,2,0,0
74357145,74352904,40.1517803724414,116.25797163316751,49.8963,49.845833,0.16504557,0.347508,0.41167948,nan,2,2,0,0
74549566,74545457,40.15178442118518,116.25797157880496,49.893898,49.84226,0.16504557,0.3462878,0.4114794,nan,2,2,0,0
74753437,74749222,40.15179116440281,116.25797152012278,49.899536,49.849205,0.16504557,0.34601057,0.41154382,nan,2,2,0,0
74953698,74949798,40.15180008131822,116.25797145868285,49.953297,49.904716,0.16504557,0.34508654,0.41181043,nan,2,2,0,0
75149740,75145473,40.151810647952146,116.2579714532733,50.028538,49.980335,0.16504557,0.34435394,0.4117278,nan,2,2,0,0
75352921,75349243,40.15182245812004,116.25797147296791,50.260715,50.211758,0.16504557,0.34380287,0.4117196,nan,2,2,0,0
75557454,75553181,40.1518339383526,116.25797158214118,50.735146,50.687042,0.16504557,0.34376097,0.41188082,nan,2,2,0,0
75753271,75748664,40.15184480370304,116.25797174254917,51.31244,51.266396,0.16504557,0.34311935,0.41179442,nan,2,2,0,0
75945439,75941244,40.151856046766895,116.25797200547976,51.902897,51.85675,0.16504557,0.34294802,0.41189313,nan,2,2,0,0
76149376,76145118,40.151868178983946,116.25797237379041,52.594555,52.547695,0.16504557,0.34278402,0.4119867,nan,2,2,0,0
76353499,76348790,40.151880697593946,116.25797289019651,53.318356,53.27077,0.16504557,0.34230632,0.41195688,nan,2,2,0,0
76545444,76541213,40.15189294809087,116.25797352972786,54.025295,53.978592,0.16504557,0.34256917,0.41224453,nan,2,2,0,0
76753499,76749143,40.15190642197104,116.2579743548967,54.84607,54.799244,0.16504557,0.34277126,0.41245708,nan,2,2,0,0
76953102,76948595,40.15191991961697,116.25797528237595,55.642838,55.59722,0.16504557,0.34267813,0.412974,nan,2,2,0,0
77153612,77149400,40.15193371071979,116.25797646588236,56.49792,56.453934,0.16504557,0.3426663,0.41297233,nan,2,2,0,0
77349106,77344814,40.15194760064217,116.25797784416068,57.346703,57.30324,0.16504557,0.3423214,0.4127831,nan,2,2,0,0
77553766,77549156,40.151962421948866,116.25797962222723,58.276566,58.234703,0.16504557,0.3432453,0.41307294,nan,2,2,0,0
77745045,77740649,40.15197663788484,116.25798159209732,59.16804,59.128307,0.16504557,0.3428456,0.41281617,nan,2,2,0,0
77949300,77944801,40.151992099709005,116.25798403597456,60.150486,60.11183,0.16504557,0.3432386,0.41284713,nan,2,2,0,0
78149622,78145409,40.15200760494781,116.25798681454863,61.142563,61.105522,0.16504557,0.34364504,0.41286835,nan,2,2,0,0
78349226,78344795,40.152023305938805,116.25798989221636,62.159286,62.123783,0.16504557,0.34353495,0.41271073,nan,2,2,0,0
78557142,78552849,40.15204002119827,116.2579933490357,63.246475,63.211243,0.16504557,0.3434732,0.41256213,nan,2,2,0,0
78753401,78749227,40.15205616654258,116.25799693163813,64.29719,64.26446,0.16504557,0.34396031,0.4126105,nan,2,2,0,0
78953532,78949250,40.15207290279721,116.25800094171578,65.3917,65.35883,0.16504557,0.3442571,0.41258,nan,2,2,0,0
79153499,79149212,40.15208989314189,116.25800541510166,66.5112,66.48082,0.16504557,0.34411666,0.4124183,nan,2,2,0,0
79345422,79341298,40.15210644089948,116.25801024704792,67.61198,67.58292,0.16504557,0.34394184,0.41271988,nan,2,2,0,0
79545375,79540982,40.152123858906954,116.2580157539454,68.77524,68.74596,0.16504557,0.3436989,0.4125198,nan,2,2,0,0
79749568,79745407,40.15214192180561,116.25802176926115,69.985855,69.957634,0.16504557,0.3439305,0.41247877,nan,2,2,0,0
79957059,79952725,40.15216042125258,116.25802833018189,71.239174,71.21352,0.16504557,0.34370208,0.41230047,nan,2,2,0,0
80152798,80148608,40.15217808698509,116.25803497889858,72.44695,72.42415,0.16504557,0.3439981,0.41229355,nan,2,2,0,0
80353251,80348832,40.15219634700656,116.2580422242009,73.700165,73.67973,0.16504557,0.34412628,0.4122283,nan,2,2,0,0
80545162,80540941,40.15221399705968,116.25804972721932,74.92197,74.90162,0.16504557,0.34771246,0.41284928,nan,2,2,0,0
80753654,80749034,40.15223325309674,116.25805848012409,76.260925,76.240875,0.16504557,0.34375283,0.41235057,nan,2,2,0,0
80949808,80945506,40.152251528244676,116.25806719288366,77.543785,77.52366,0.16504557,0.34383836,0.41183773,nan,2,2,0,0
81152839,81148716,40.1522705967953,116.25807669514869,78.888824,78.87045,0.16504557,0.3435137,0.41207072,nan,2,2,0,0
81349198,81345019,40.152289198057616,116.25808627427105,80.20918,80.19186,0.16504557,0.3436094,0.4120068,nan,2,2,0,0
81554068,81549522,40.152308710118795,116.25809668088353,81.59892,81.58406,0.16504557,0.34328148,0.41179857,nan,2,2,0,0
81749445,81745497,40.1523275229461,116.25810706310607,82.94806,82.93413,0.16504557,0.34339043,0.41174552,nan,2,2,0,0
81945235,81940810,40.15234630812097,116.25811788643298,84.311554,84.299484,0.16504557,0.34275147,0.4114595,nan,2,2,0,0
82145156,82140915,40.15236561722105,116.25812949394903,85.72729,85.714615,0.16504557,0.3429163,0.41142905,nan,2,2,0,0
82349579,82345489,40.15238541720896,116.25814196015152,87.18686,87.175125,0.16504557,0.3430706,0.41139564,nan,2,2,0,0
82545184,82540822,40.152404278846745,116.25815456441119,88.59589,88.58474,0.16504557,0.34281102,0.41163808,nan,2,2,0,0
82752838,82748445,40.152424282060274,116.25816869047901,90.10957,90.09892,0.16504557,0.34295034,0.41159618,nan,2,2,0,0
82952903,82948977,40.152443549399294,116.25818312275275,91.57816,91.56829,0.16504557,0.3434129,0.4112557,nan,2,2,0,0
83148650,83144623,40.15246290222712,116.25819805143178,92.92753,92.918495,0.16504557,0.34315783,0.41147733,nan,2,2,0,0
83349804,83345734,40.1524838382215,116.2582144788761,94.16461,94.15785,0.16504557,0.34314728,0.41141117,nan,2,2,0,0
83553439,83548863,40.152506067493185,116.25823220889815,95.26256,95.25686,0.16504557,0.3424644,0.41114107,nan,2,2,0,0
83753219,83748831,40.152529072152895,116.25825096126334,96.19386,96.18733,0.16504557,0.34261847,0.41114458,nan,2,2,0,0
83949838,83945380,40.152552632913356,116.25827084813815,96.98257,96.97664,0.16504557,0.34213337,0.41095147,nan,2,2,0,0
84153855,84149285,40.15257816936963,116.25829298144909,97.67088,97.66547,0.16504557,0.34243926,0.4109899,nan,2,2,0,0
84353441,84349298,40.15260440779633,116.2583160777278,98.21988,98.215,0.16504557,0.34278017,0.41103053,nan,2,2,0,0
84550186,84545251,40.15263115429346,116.25834003349429,98.67339,98.66812,0.16504557,0.3426504,0.41094208,nan,2,2,0,0
84753636,84748989,40.152659081948414,116.25836590382745,99.05283,99.04774,0.16504557,0.3429156,0.4109538,nan,2,2,0,0
84948460,84941013,40.15268497715391,116.25839053619177,99.31206,99.306305,0.16504557,0.34279343,0.41121608,nan,2,2,0,0
85149721,85145330,40.15271210621234,116.25841666538666,99.513504,99.50859,0.16504557,0.34258622,0.41107592,nan,2,2,0,0
85352879,85348522,40.152738616652556,116.25844264387636,99.662094,99.65629,0.16504557,0.34208867,0.41084525,nan,2,2,0,0
85553305,85548864,40.152764376396384,116.25846815791715,99.76222,99.75553,0.16504557,0.3423041,0.41084877,nan,2,2,0,0
85753023,85748807,40.15278970840286,116.25849358117283,99.830025,99.82477,0.16504557,0.34243017,0.4108413,nan,2,2,0,0
85951262,85945395,40.15281409972362,116.25851873980127,99.886475,99.88165,0.16504557,0.34249035,0.41082707,nan,2,2,0,0
86145257,86140904,40.152837756950035,116.25854402510554,99.93118,99.92511,0.16504557,0.3450874,0.4112293,nan,2,2,0,0
86353481,86349226,40.152862441227015,116.25857102906248,99.95981,99.95365,0.16504557,0.3419747,0.41063514,nan,2,2,0,0
86549452,86545323,40.152885083794004,116.2585966986945,99.97272,99.96562,0.16504557,0.34186712,0.41095403,nan,2,2,0,0
86752663,86748469,40.15290786693592,116.25862362264212,99.98891,99.98242,0.16504557,0.34176716,0.41092363,nan,2,2,0,0
86955722,86952318,40.15293019352063,116.25865079346801,99.99751,99.99116,0.16504557,0.34144703,0.41083315,nan,2,2,0,0
87150223,87145567,40.15295090002263,116.25867649333945,99.993835,99.987236,0.16504557,0.34120739,0.4107742,nan,2,2,0,0
87349438,87345221,40.15297181235176,116.25870308144881,99.98503,99.978165,0.16504557,0.34204343,0.4110607,nan,2,2,0,0
87545321,87541045,40.15299193316123,116.25872911398477,99.984375,99.97802,0.16504557,0.3448443,0.4111741,nan,2,2,0,0
87753111,87748627,40.15301279538384,116.25875676050379,99.984604,99.9791,0.16504557,0.34126508,0.410849,nan,2,2,0,0
87952960,87948811,40.15303242202706,116.25878349461136,99.97856,99.9741,0.16504557,0.3419587,0.411086,nan,2,2,0,0
88153537,88149415,40.15305163931949,116.25881032684705,99.973625,99.969795,0.16504557,0.3428435,0.41138467,nan,2,2,0,0
88353497,88348969,40.15307026914353,116.25883708817277,99.968216,99.9662,0.16504557,0.34318382,0.4114906,nan,2,2,0,0
88553106,88549014,40.153088369680496,116.25886408784349,99.96961,99.96901,0.16504557,0.34305975,0.41144654,nan,2,2,0,0
88754226,88749425,40.15310597853042,116.25889127603737,99.96361,99.96484,0.16504557,0.342602,0.41169164,nan,2,2,0,0
88945221,88940950,40.15312241149741,116.2589172990239,99.9509,99.95205,0.16504557,0.3426231,0.41168442,nan,2,2,0,0
89149378,89145239,40.15313952274915,116.25894517406293,99.940186,99.94143,0.16504557,0.34291846,0.41176704,nan,2,2,0,0
89353057,89348992,40.15315618458057,116.2589730320532,99.930115,99.93175,0.16504557,0.34316525,0.41181973,nan,2,2,0,0
89557389,89553163,40.153172385737285,116.25900108520871,99.92236,99.92543,0.16504557,0.3433705,0.4118585,nan,2,2,0,0
89749446,89745212,40.153187177045574,116.25902759548977,99.914536,99.9175,0.16504557,0.3435039,0.41186255,nan,2,2,0,0
89953052,89948698,40.15320241376603,116.25905582720698,99.89905,99.90184,0.16504557,0.3431369,0.41212958,nan,2,2,0,0
90153542,90149090,40.15321705217991,116.25908365891463,99.88141,99.88314,0.16504557,0.34354016,0.41179267,nan,2,2,0,0
90345309,90340675,40.1532307079262,116.25911031580553,99.86929,99.87145,0.16504557,0.3428157,0.41192362,nan,2,2,0,0
90553125,90548696,40.15324524380781,116.2591393144476,99.86482,99.8663,0.16504557,0.34288475,0.41190186,nan,2,2,0,0
90752838,90748486,40.15325892121052,116.25916718288961,99.85591,99.85683,0.16504557,0.3426328,0.4117715,nan,2,2,0,0
90953104,90948881,40.15327231688031,116.25919525403721,99.844894,99.844505,0.16504557,0.34314862,0.4119058,nan,2,2,0,0
91157177,91153213,40.15328565119659,116.25922396480233,99.83693,99.83673,0.16504557,0.34312275,0.41185954,nan,2,2,0,0
91345276,91340836,40.15329753670263,116.25925044047042,99.82733,99.828186,0.16504557,0.34279364,0.4117026,nan,2,2,0,0
91553537,91549184,40.15331045149784,116.25927993565499,99.82405,99.82539,0.16504557,0.34282652,0.4116714,nan,2,2,0,0
91752831,91748898,40.15332255982405,116.25930827738618,99.81862,99.82033,0.16504557,0.3425701,0.4115462,nan,2,2,0,0
91949433,91945379,40.15333428597562,116.2593361495353,99.812515,99.81285,0.16504557,0.34232795,0.41142964,nan,2,2,0,0
92149116,92144614,40.15334606975143,116.25936433912041,99.799194,99.80078,0.16504557,0.34182802,0.4116179,nan,2,2,0,0
92349318,92345020,40.15335785502825,116.2593926635492,99.79385,99.79527,0.16504557,0.3418237,0.41118217,nan,2,2,0,0
92549300,92545077,40.15336951048377,116.25942090701292,99.79106,99.793205,0.16504557,0.34152144,0.4114297,nan,2,2,0,0
92753002,92748562,40.153381264180304,116.25944959457873,99.791245,99.79287,0.16504557,0.34126565,0.411298,nan,2,2,0,0
92944875,92940441,40.15339222815834,116.25947659626338,99.793976,99.794395,0.16504557,0.34142646,0.41131586,nan,2,2,0,0
93149444,93145284,40.15340384969103,116.25950542505306,99.7892,99.78787,0.16504557,0.3415586,0.4113064,nan,2,2,0,0
93345283,93340851,40.15341482558752,116.25953296375806,99.77706,99.775085,0.16504557,0.3416623,0.41129336,nan,2,2,0,0
93548994,93544775,40.15342625389471,116.25956163860751,99.77069,99.76701,0.16504557,0.34210354,0.41138536,nan,2,2,0,0
93753608,93749263,40.153437752866225,116.25959029766881,99.76679,99.764114,0.16504557,0.34213758,0.41134533,nan,2,2,0,0
93953389,93949305,40.15344897354704,116.25961826047924,99.76338,99.75965,0.16504557,0.34247223,0.41181046,nan,2,2,0,0
94149221,94144591,40.1534598551472,116.25964549525823,99.75984,99.75613,0.16504557,0.34205416,0.4116166,nan,2,2,0,0
94353263,94349141,40.15347130634761,116.25967387588099,99.755585,99.7515,0.16504557,0.34310436,0.41150618,nan,2,2,0,0
94552979,94548576,40.153482536893904,116.25970148125623,99.75444,99.75053,0.16504557,0.34257618,0.41168097,nan,2,2,0,0
94752860,94748295,40.15349385278813,116.25972907425455,99.75126,99.74525,0.16504557,0.34248936,0.41159827,nan,2,2,0,0
94952753,94948254,40.153505269126214,116.25975658359928,99.74858,99.74274,0.16504557,0.3426774,0.4116129,nan,2,2,0,0
95149420,95144951,40.15351661808928,116.2597835001118,99.744415,99.736984,0.16504557,0.342477,0.4115038,nan,2,2,0,0
95357263,95352999,40.153528604573154,116.25981187181908,99.739914,99.731575,0.16504557,0.34233966,0.41141495,nan,2,2,0,0
95552896,95548663,40.153539872975635,116.25983856212791,99.72998,99.722084,0.16504557,0.34225315,0.4113506,nan,2,2,0,0
95753102,95749261,40.15355137766407,116.25986588802262,99.72493,99.71625,0.16504557,0.3425154,0.41140178,nan,2,2,0,0
95952669,95948387,40.153562806326576,116.25989300547886,99.71659,99.70783,0.16504557,0.34239924,0.41172266,nan,2,2,0,0
96152843,96148944,40.153574369873006,116.25992027160696,99.71172,99.701256,0.16504557,0.3425865,0.41175216,nan,2,2,0,0
96353086,96349083,40.15358595454926,116.25994733306966,99.710976,99.699356,0.16504557,0.3427313,0.41175547,nan,2,2,0,0
96552578,96548329,40.15359760289638,116.2599741338517,99.70966,99.69848,0.16504557,0.34219995,0.41153064,nan,2,2,0,0
96753080,96748889,40.153609420572685,116.26000099228025,99.70518,99.69269,0.16504557,0.34245384,0.41157725,nan,2,2,0,0
96952704,96948292,40.15362118829476,116.2600277329385,99.699936,99.68664,0.16504557,0.34199455,0.4113853,nan,2,2,0,0
97152759,97148505,40.153633008841574,116.26005452729007,99.69559,99.68162,0.16504557,0.34229925,0.41145086,nan,2,2,0,0
97352993,97348645,40.153644925441014,116.26008127263955,99.691086,99.67633,0.16504557,0.34223342,0.41139218,nan,2,2,0,0
97553264,97549120,40.15365699970863,116.26010790166148,99.68831,99.67288,0.16504557,0.34218192,0.41134372,nan,2,2,0,0
97753220,97748958,40.15366910155602,116.26013434092003,99.68301,99.66516,0.16504557,0.3421539,0.4112939,nan,2,2,0,0
97953238,97948798,40.15368124072392,116.2601607187865,99.67265,99.65614,0.16504557,0.34180966,0.41153583,nan,2,2,0,0
98153237,98148422,40.15369332019275,116.26018709360828,99.66472,99.6458,0.16504557,0.34153166,0.4114082,nan,2,2,0,0
98348555,98344325,40.15370508788824,116.260212993007,99.65607,99.63672,0.16504557,0.34171897,0.41143408,nan,2,2,0,0
98553049,98548991,40.15371737358072,116.26024011384338,99.65128,99.63306,0.16504557,0.3421082,0.4115283,nan,2,2,0,0
98749040,98744579,40.15372906922055,116.26026603408471,99.64813,99.630295,0.16504557,0.3414454,0.41126326,nan,2,2,0,0
98953156,98948733,40.15374116635319,116.26029313033679,99.64589,99.62594,0.16504557,0.34216365,0.4114775,nan,2,2,0,0
99153074,99148717,40.1537530196417,116.26031962997803,99.64066,99.61994,0.16504557,0.34218007,0.4114389,nan,2,2,0,0
99349874,99345724,40.15376476726818,116.26034575241076,99.634186,99.61216,0.16504557,0.34250447,0.41151538,nan,2,2,0,0
99552534,99548304,40.153776918317924,116.26037255640165,99.63316,99.61232,0.16504557,0.34268105,0.41153026,nan,2,2,0,0
99753312,99748950,40.15378905797855,116.26039903579286,99.63313,99.61163,0.16504557,0.3425068,0.41142154,nan,2,2,0,0
99949500,99945252,40.153800981104766,116.26042487153366,99.63229,99.611244,0.16504557,0.34235612,0.41133663,nan,2,2,0,0
100153588,100148590,40.15381335156341,116.26045151523145,99.63231,99.61011,0.16504557,0.34190133,0.41154537,nan,2,2,0,0
100353005,100348566,40.15382550328869,116.26047767973759,99.62804,99.6048,0.16504557,0.34185553,0.41149843,nan,2,2,0,0
100549378,100545188,40.15383741267698,116.26050341801509,99.623474,99.60101,0.16504557,0.34219506,0.41158286,nan,2,2,0,0
100752939,100748457,40.1538497571818,116.26053006999936,99.619576,99.596115,0.16504557,0.34300992,0.41183737,nan,2,2,0,0
100953164,100949829,40.15386197749754,116.2605564438804,99.61614,99.59273,0.16504557,0.34301463,0.41180307,nan,2,2,0,0
101153126,101149068,40.15387409022936,116.26058251003434,99.6154,99.59202,0.16504557,0.3430103,0.41176665,nan,2,2,0,0
101354329,101349116,40.153886336198774,116.26060869003145,99.61254,99.589676,0.16504557,0.34266356,0.41161472,nan,2,2,0,0
101544906,101540317,40.15389813497155,116.26063367266431,99.60886,99.585526,0.16504557,0.34506214,0.41199002,nan,2,2,0,0
101749327,101744847,40.15391084185941,116.2606603191447,99.603676,99.582085,0.16504557,0.34221292,0.41139463,nan,2,2,0,0
101945380,101940935,40.1539229935526,116.26068584545874,99.60329,99.58176,0.16504557,0.34231442,0.41139653,nan,2,2,0,0
102153310,102149106,40.15393586481497,116.26071290724288,99.59744,99.57511,0.16504557,0.34176347,0.4115688,nan,2,2,0,0
102352885,102348437,40.15394814712674,116.26073879643286,99.59729,99.57702,0.16504557,0.34194887,0.41160598,nan,2,2,0,0
102553281,102548956,40.15396051464622,116.26076483573175,99.59691,99.576675,0.16504557,0.3424749,0.41175792,nan,2,2,0,0
102745057,102740571,40.153972438263146,116.26078971841999,99.594505,99.574554,0.16504557,0.3419134,0.41152188,nan,2,2,0,0
102952968,102948733,40.153985510952374,116.26081662189698,99.58946,99.57012,0.16504557,0.342081,0.4115442,nan,2,2,0,0
103153251,103148976,40.1539982067055,116.26084235835283,99.58422,99.563545,0.16504557,0.34162837,0.41134506,nan,2,2,0,0
103352938,103348334,40.1540109846561,116.2608678926588,99.577095,99.55711,0.16504557,0.3413089,0.41119266,nan,2,2,0,0
103557080,103552939,40.154024242602084,116.26089398823993,99.575424,99.55597,0.16504557,0.3417201,0.41129708,nan,2,2,0,0
103752516,103748419,40.15403701232575,116.26091881499413,99.57767,99.55746,0.16504557,0.34146363,0.41118142,nan,2,2,0,0
103953015,103949415,40.15405032119143,116.26094411181957,99.57763,99.55729,0.16504557,0.3418831,0.41129473,nan,2,2,0,0
104148607,104144333,40.15406336166085,116.26096853571465,99.57495,99.55279,0.16504557,0.3444622,0.41174415,nan,2,2,0,0
104352492,104348233,40.15407711992646,116.26099394946087,99.5733,99.55092,0.16504557,0.34164006,0.41154176,nan,2,2,0,0
104545371,104540917,40.154090147084766,116.2610179830522,99.5701,99.54761,0.16504557,0.34465405,0.41172305,nan,2,2,0,0
104749553,104744618,40.154103973817726,116.26104329861258,99.57058,99.546776,0.16504557,0.3414607,0.41139746,nan,2,2,0,0
104952707,104948297,40.15411785571103,116.26106857073681,99.56909,99.54507,0.16504557,0.3421609,0.41159856,nan,2,2,0,0
105152462,105148814,40.15413157019506,116.26109341627378,99.570114,99.54646,0.16504557,0.3421055,0.41153708,nan,2,2,0,0
105349957,105348651,40.154145354388916,116.26111809485067,99.57036,99.547844,0.16504557,0.3423919,0.41159037,nan,2,2,0,0
105549647,105545132,40.154159065040155,116.26114220357013,99.573654,99.55284,0.16504557,0.3467368,0.41216,nan,2,2,0,0
105748928,105745939,40.15417322797148,116.26116669258911,99.56648,99.544,0.16504557,0.34680304,0.41224793,nan,2,2,0,0
105953632,105949069,40.15418773999769,116.26119124806515,99.56737,99.54569,0.16504557,0.3460637,0.4120631,nan,2,2,0,0
106148993,106144572,40.1542018381757,116.26121475141936,99.565094,99.547005,0.16504557,0.34973785,0.41242814,nan,2,2,0,0
106356774,106349493,40.15421676626122,116.26123925415085,99.56799,99.54918,0.16504557,0.34891644,0.41281664,nan,2,2,0,0
106549082,106544943,40.15423113614216,116.26126254711565,99.56325,99.544464,0.16504557,0.35265014,0.41262078,nan,2,2,0,0
106756788,106752697,40.15424637790822,116.2612872980099,99.56009,99.54171,0.16504557,0.35185802,0.41265994,nan,2,2,0,0
106952983,106948667,40.15426079168978,116.26131065814573,99.558655,99.54201,0.16504557,0.3501891,0.41236392,nan,2,2,0,0
107149129,107144672,40.154275179942694,116.26133401757204,99.554855,99.53899,0.16504557,0.3477568,0.41221938,nan,2,2,0,0
107348610,107345423,40.154289940605864,116.26135790272468,99.55202,99.53498,0.16504557,0.34615746,0.411839,nan,2,2,0,0
107553541,107549074,40.15430492301201,116.26138208306534,99.5479,99.53107,0.16504557,0.34496877,0.41156888,nan,2,2,0,0
107756662,107752205,40.15431994191924,116.26140612445323,99.545044,99.52923,0.16504557,0.34406286,0.41137648,nan,2,2,0,0
107953621,107949510,40.154334581827044,116.26142940529365,99.54201,99.52534,0.16504557,0.3440571,0.41147038,nan,2,2,0,0
108144932,108140773,40.15434886112476,116.26145190404164,99.53979,99.52322,0.16504557,0.34337088,0.41131368,nan,2,2,0,0
108352838,108348379,40.154364377036686,116.26147634155542,99.539505,99.524994,0.16504557,0.34279606,0.41156638,nan,2,2,0,0
108549495,108545259,40.154379117656006,116.26149955671912,99.54082,99.525505,0.16504557,0.3429764,0.41167736,nan,2,2,0,0
108752917,108748819,40.15439427596107,116.26152356764442,99.54162,99.52669,0.16504557,0.34247458,0.41152063,nan,2,2,0,0
108945062,108940771,40.154408541237,116.26154627972706,99.54276,99.52737,0.16504557,0.3421742,0.4114254,nan,2,2,0,0
109153994,109148216,40.15442388943304,116.26157092267101,99.54081,99.526985,0.16504557,0.3421751,0.4114328,nan,2,2,0,0
109353166,109348513,40.15443866322252,116.26159476555624,99.53915,99.5255,0.16504557,0.34193164,0.41134575,nan,2,2,0,0
109549463,109545035,40.15445305525843,116.2616181962028,99.537796,99.52489,0.16504557,0.3414835,0.4111797,nan,2,2,0,0
109753360,109748445,40.15446782243555,116.26164254038973,99.53298,99.52086,0.16504557,0.34171438,0.4112445,nan,2,2,0,0
109953010,109948676,40.15448228195794,116.26166656570365,99.533646,99.52249,0.16504557,0.34201097,0.41132167,nan,2,2,0,0
110153373,110148216,40.15449665227907,116.2616905802504,99.5345,99.52427,0.16504557,0.34161153,0.41154793,nan,2,2,0,0
110353090,110348656,40.154511025608706,116.2617147653726,99.53862,99.52901,0.16504557,0.34187335,0.411625,nan,2,2,0,0
110544965,110540889,40.15452461485292,116.26173812959439,99.5406,99.53176,0.16504557,0.34146923,0.41145235,nan,2,2,0,0
110753087,110748692,40.15453916021416,116.26176352270664,99.53921,99.532524,0.16504557,0.3417876,0.41152635,nan,2,2,0,0
110952762,110948423,40.154553043073186,116.26178804896226,99.53998,99.534325,0.16504557,0.34144172,0.4113692,nan,2,2,0,0
111152831,111148426,40.15456684496028,116.26181268618049,99.543655,99.53838,0.16504557,0.3414745,0.411338,nan,2,2,0,0
111348577,111344361,40.154580263720796,116.26183694778423,99.54376,99.53819,0.16504557,0.3412687,0.4112252,nan,2,2,0,0
111544642,111540450,40.154593544971185,116.26186135984625,99.5408,99.53577,0.16504557,0.34390587,0.4117071,nan,2,2,0,0
111749027,111744765,40.15460710831081,116.26188700215901,99.5423,99.53913,0.16504557,0.34101105,0.41106123,nan,2,2,0,0
111953107,111948752,40.154620407890384,116.26191284627247,99.54379,99.540535,0.16504557,0.34125796,0.4114945,nan,2,2,0,0
112157254,112152912,40.154633534003494,116.26193891230051,99.539116,99.5358,0.16504557,0.34149593,0.4115357,nan,2,2,0,0
112352846,112348427,40.15464597566384,116.26196397896445,99.533585,99.53002,0.16504557,0.34167138,0.41155186,nan,2,2,0,0
112544797,112540509,40.154658038862436,116.26198870376611,99.527054,99.52353,0.16504557,0.34440753,0.41164652,nan,2,2,0,0
112752861,112748454,40.15467090227865,116.26201563556215,99.52394,99.518524,0.16504557,0.34169853,0.41148064,nan,2,2,0,0
112953177,112948906,40.154683155338,116.2620417453855,99.51976,99.512856,0.16504557,0.34219995,0.41161793,nan,2,2,0,0
113153071,113148749,40.154695162755395,116.26206791983883,99.51793,99.51164,0.16504557,0.342875,0.4118172,nan,2,2,0,0
113348730,113344341,40.154706694008915,116.26209367665616,99.516205,99.5099,0.16504557,0.34235764,0.41158918,nan,2,2,0,0
113553029,113548514,40.15471846480566,116.26212074918615,99.51726,99.51082,0.16504557,0.34257427,0.411619,nan,2,2,0,0
113749227,113745336,40.154729606307,116.26214705827093,99.51853,99.512955,0.16504557,0.3451264,0.41204503,nan,2,2,0,0
113948689,113944206,40.15474058778066,116.26217382877947,99.51816,99.51234,0.16504557,0.34176838,0.41165906,nan,2,2,0,0
114144907,114140521,40.15475105438017,116.26220053283373,99.51718,99.51361,0.16504557,0.34207332,0.41172943,nan,2,2,0,0
114348447,114344208,40.154761613970635,116.26222838023104,99.52249,99.51913,0.16504557,0.34201774,0.41166237,nan,2,2,0,0
114549047,114544630,40.15477175612384,116.26225596583716,99.52431,99.52167,0.16504557,0.34194547,0.41159964,nan,2,2,0,0
114744687,114740277,40.15478135761857,116.2622830964554,99.523766,99.52111,0.16504557,0.34128433,0.4113257,nan,2,2,0,0
114956456,114952181,40.154791472514304,116.26231265992108,99.520004,99.51655,0.16504557,0.34172344,0.411443,nan,2,2,0,0
115152428,115148072,40.15480053770453,116.26234015463388,99.51756,99.51372,0.16504557,0.34186074,0.41145432,nan,2,2,0,0
115349030,115344999,40.15480935943804,116.26236796712936,99.51824,99.51356,0.16504557,0.34253955,0.41165233,nan,2,2,0,0
115553270,115549098,40.15481814489291,116.2623969470184,99.51767,99.51509,0.16504557,0.34236762,0.41155156,nan,2,2,0,0
115753030,115748365,40.15482644869941,116.26242538753607,99.51923,99.517525,0.16504557,0.34219456,0.41185582,nan,2,2,0,0
115949264,115945087,40.154834354278805,116.26245360755553,99.516205,99.51592,0.16504557,0.3421133,0.4113714,nan,2,2,0,0
116152845,116148635,40.15484220793648,116.26248295115873,99.511246,99.51029,0.16504557,0.34261513,0.4119171,nan,2,2,0,0
116348792,116344428,40.1548494959826,116.26251127779878,99.50573,99.503784,0.16504557,0.34205687,0.41167358,nan,2,2,0,0
116549034,116544842,40.15485663825691,116.26254040196564,99.50157,99.499916,0.16504557,0.34227428,0.41130555,nan,2,2,0,0
116753264,116748636,40.1548636301008,116.26257012975246,99.49356,99.49356,0.16504557,0.3418139,0.41150922,nan,2,2,0,0
116953093,116948196,40.154870134532786,116.26259933037346,99.487885,99.48859,0.16504557,0.34208378,0.4115602,nan,2,2,0,0
117144869,117140622,40.15487605468695,116.26262763037148,99.488464,99.48917,0.16504557,0.34234285,0.41161254,nan,2,2,0,0
117345015,117340592,40.154881895467206,116.26265718753035,99.48296,99.483086,0.16504557,0.34211957,0.41149,nan,2,2,0,0
117552857,117548246,40.1548876395839,116.26268795804053,99.477646,99.47567,0.16504557,0.34223998,0.41149154,nan,2,2,0,0
117757115,117752877,40.15489293937006,116.26271838416099,99.47371,99.4718,0.16504557,0.34245715,0.4115202,nan,2,2,0,0
117952597,117948389,40.154897787728174,116.26274754232016,99.46991,99.46748,0.16504557,0.34199947,0.4117222,nan,2,2,0,0
118149849,118144965,40.1549024549336,116.26277688432296,99.46748,99.46588,0.16504557,0.34192577,0.41125932,nan,2,2,0,0
118344904,118340333,40.15490692782542,116.26280610063567,99.46629,99.46634,0.16504557,0.34154233,0.41148907,nan,2,2,0,0
118548433,118544205,40.15491136991361,116.26283669691956,99.46668,99.46734,0.16504557,0.3415543,0.4114573,nan,2,2,0,0
118749045,118744274,40.15491544370205,116.26286677645535,99.4734,99.47422,0.16504557,0.3415743,0.41143075,nan,2,2,0,0
118953078,118948910,40.15491922406114,116.26289764093673,99.475784,99.4765,0.16504557,0.341933,0.41151395,nan,2,2,0,0
119157243,119152895,40.15492268797214,116.26292845153546,99.479675,99.480484,0.16504557,0.34190106,0.4114671,nan,2,2,0,0
119353078,119349013,40.15492577208503,116.26295808502354,99.4845,99.48562,0.16504557,0.3422407,0.41153887,nan,2,2,0,0
119549195,119544849,40.1549285743264,116.26298777917913,99.48363,99.483826,0.16504557,0.34215942,0.41146436,nan,2,2,0,0
119752675,119748587,40.154931162433655,116.26301873156085,99.48523,99.48596,0.16504557,0.3424262,0.41151214,nan,2,2,0,0
119953083,119948392,40.15493332406158,116.26304908747011,99.49008,99.490776,0.16504557,0.34194896,0.41171643,nan,2,2,0,0
120153481,120149311,40.15493514672874,116.2630795722679,99.49292,99.49319,0.16504557,0.34221256,0.41176277,nan,2,2,0,0
120352967,120348432,40.154936467974615,116.26310985306817,99.49875,99.496994,0.16504557,0.34179464,0.41156313,nan,2,2,0,0
120553220,120550361,40.154937406880954,116.26314060998946,99.49451,99.49273,0.16504557,0.34178317,0.41151765,nan,2,2,0,0
120753000,120748840,40.154938034575494,116.26317083077134,99.493355,99.49095,0.16504557,0.34180838,0.41148594,nan,2,2,0,0
120953017,120948846,40.15493835321741,116.2632013352085,99.48794,99.48605,0.16504557,0.34188685,0.41146553,nan,2,2,0,0
121149012,121144496,40.15493834912499,116.2632312151692,99.48736,99.486984,0.16504557,0.3452148,0.41173074,nan,2,2,0,0
121352719,121348375,40.15493806036449,116.26326229337995,99.48659,99.485756,0.16504557,0.34182996,0.41136158,nan,2,2,0,0
121548722,121544418,40.1549375979242,116.26329214565493,99.48718,99.48625,0.16504557,0.3418377,0.41132215,nan,2,2,0,0
121744931,121740495,40.15493700566074,116.26332200043291,99.48854,99.489586,0.16504557,0.34182173,0.41167632,nan,2,2,0,0
121952814,121948494,40.15493615147809,116.2633536937133,99.49046,99.4913,0.16504557,0.34211448,0.41173625,nan,2,2,0,0
122152929,122148770,40.1549351765814,116.26338424616497,99.48921,99.49109,0.16504557,0.34210676,0.41167855,nan,2,2,0,0
122352825,122348556,40.15493408750696,116.26341475659349,99.48973,99.4917,0.16504557,0.3424258,0.41174355,nan,2,2,0,0
122548764,122544529,40.15493297622246,116.26344466159914,99.49194,99.49462,0.16504557,0.34202647,0.4115532,nan,2,2,0,0
122748785,122744866,40.15493177405748,116.2634751888936,99.49632,99.498474,0.16504557,0.34197918,0.41149244,nan,2,2,0,0
122944917,122940623,40.15493053816167,116.26350498759746,99.49706,99.49868,0.16504557,0.34196988,0.41144657,nan,2,2,0,0
123144826,123140313,40.15492913426505,116.26353539350194,99.49808,99.49858,0.16504557,0.34160942,0.41127825,nan,2,2,0,0
123353032,123348687,40.15492757056608,116.2635671254989,99.492874,99.49246,0.16504557,0.34167644,0.41125825,nan,2,2,0,0
123544496,123540192,40.154926057482285,116.26359627782037,99.4915,99.49112,0.16504557,0.34144822,0.41152906,nan,2,2,0,0
123753068,123748552,40.15492445369532,116.2636280406926,99.49099,99.49144,0.16504557,0.34216985,0.41175166,nan,2,2,0,0
123952402,123948978,40.15492289058038,116.26365853778645,99.496704,99.49753,0.16504557,0.34212422,0.41168964,nan,2,2,0,0
124149057,124144895,40.15492145373729,116.26368837740205,99.49795,99.49818,0.16504557,0.34241477,0.41174445,nan,2,2,0,0
124348755,124344429,40.154920050616056,116.26371878329876,99.49889,99.49766,0.16504557,0.34226486,0.4116481,nan,2,2,0,0
124553400,124548795,40.154918625494695,116.26374991526535,99.49618,99.49532,0.16504557,0.34250957,0.4116887,nan,2,2,0,0
124752561,124748479,40.15491727587453,116.263780337323,99.49757,99.49661,0.16504557,0.34240863,0.41160813,nan,2,2,0,0
124956602,124952278,40.15491594213224,116.26381140322299,99.49995,99.49839,0.16504557,0.34236318,0.41154772,nan,2,2,0,0
125148375,125144233,40.15491472429268,116.2638406345586,99.50534,99.501366,0.16504557,0.34201482,0.41138756,nan,2,2,0,0
125344818,125340602,40.15491348308321,116.26387053989657,99.500275,99.496346,0.16504557,0.34200796,0.41135168,nan,2,2,0,0
125553500,125548488,40.15491224863735,116.26390220942618,99.50084,99.49745,0.16504557,0.34263545,0.41153133,nan,2,2,0,0
125752453,125748182,40.154911193189335,116.26393262504021,99.498795,99.4942,0.16504557,0.34183115,0.4116219,nan,2,2,0,0
125952880,125948382,40.154910212382056,116.26396307980029,99.498856,99.4942,0.16504557,0.34247664,0.41141173,nan,2,2,0,0
126157034,126153785,40.1549094088202,116.26399434646984,99.49527,99.49112,0.16504557,0.34240046,0.4113468,nan,2,2,0,0
126348807,126344211,40.154908831240995,116.26402335163192,99.497696,99.49283,0.16504557,0.3416951,0.41146734,nan,2,2,0,0
126548579,126544490,40.154908369665854,116.26405391559842,99.50078,99.49516,0.16504557,0.34207863,0.4115681,nan,2,2,0,0
126752658,126748264,40.15490800109395,116.26408500599376,99.504196,99.49869,0.16504557,0.34207886,0.41153648,nan,2,2,0,0
126944755,126940471,40.15490775830812,116.26411428444958,99.50937,99.50464,0.16504557,0.3421027,0.41150823,nan,2,2,0,0
127153836,127148478,40.154907563963725,116.26414599320708,99.51204,99.50732,0.16504557,0.34238172,0.41157365,nan,2,2,0,0
127344535,127339947,40.15490747321328,116.26417518190475,99.51251,99.5086,0.16504557,0.3416897,0.4113003,nan,2,2,0,0
127556575,127552261,40.1549074827309,116.26420761029004,99.511375,99.50703,0.16504557,0.34235227,0.41148564,nan,2,2,0,0
127752694,127748880,40.154907646884446,116.26423764645527,99.515175,99.511246,0.16504557,0.34165382,0.41120976,nan,2,2,0,0
127953354,127948911,40.15490784970093,116.26426817959997,99.51949,99.515854,0.16504557,0.34211493,0.41132885,nan,2,2,0,0
128148763,128144198,40.154908051725634,116.2642979852355,99.51407,99.50906,0.16504557,0.34179372,0.41158596,nan,2,2,0,0
128352802,128348558,40.1549083049883,116.26432919490428,99.50765,99.50267,0.16504557,0.3418369,0.41155973,nan,2,2,0,0
128552477,128548002,40.15490861674279,116.26435963828817,99.503365,99.49692,0.16504557,0.34254196,0.41136348,nan,2,2,0,0
128752955,128748491,40.1549090132854,116.26439025045103,99.495255,99.48854,0.16504557,0.3427604,0.41140702,nan,2,2,0,0
128948395,128943962,40.15490940849238,116.26442005682394,99.48847,99.48115,0.16504557,0.34191343,0.41148332,nan,2,2,0,0
129156760,129152206,40.154909813463036,116.26445181806517,99.483665,99.474144,0.16504557,0.34253305,0.41166535,nan,2,2,0,0
129348767,129343920,40.15491015900906,116.26448108005889,99.47946,99.47023,0.16504557,0.34178454,0.41136733,nan,2,2,0,0
129552914,129548604,40.15491052804145,116.26451228112238,99.47585,99.46704,0.16504557,0.3424176,0.411554,nan,2,2,0,0
129744535,129740078,40.15491096496819,116.26454147777181,99.471886,99.46219,0.16504557,0.3422478,0.41146886,nan,2,2,0,0
129944931,129940528,40.154911560168784,116.26457203322042,99.472176,99.46234,0.16504557,0.3420743,0.41137633,nan,2,2,0,0
130153043,130148600,40.15491228428655,116.2646037607406,99.4733,99.46403,0.16504557,0.34229982,0.4114128,nan,2,2,0,0
130348831,130344252,40.15491309578029,116.264633583675,99.47487,99.46741,0.16504557,0.34185,0.4116216,nan,2,2,0,0
130545234,130540604,40.154913979992955,116.26466345832577,99.47687,99.46927,0.16504557,0.3418427,0.411184,nan,2,2,0,0
130748632,130744246,40.15491498269179,116.26469452731091,99.473404,99.46641,0.16504557,0.34149975,0.4114202,nan,2,2,0,0
130948705,130944419,40.1549160208174,116.2647250648524,99.470184,99.463104,0.16504557,0.34183207,0.4114996,nan,2,2,0,0
131148941,131144518,40.154917075678696,116.26475556505149,99.466034,99.46064,0.16504557,0.34247458,0.4116812,nan,2,2,0,0
131352442,131347889,40.154918273490736,116.26478658235052,99.46655,99.461006,0.16504557,0.34231544,0.41159153,nan,2,2,0,0
131552716,131548406,40.15491949108331,116.26481711847661,99.47159,99.46478,0.16504557,0.34308344,0.41182253,nan,2,2,0,0
131748455,131744025,40.15492065629123,116.26484691847104,99.4736,99.46656,0.16504557,0.34207937,0.4114288,nan,2,2,0,0
131952526,131948299,40.15492182415894,116.26487801620566,99.47531,99.4684,0.16504557,0.34220377,0.41142866,nan,2,2,0,0
132149189,132144881,40.15492288916843,116.2649079526448,99.47992,99.47282,0.16504557,0.34172133,0.4116272,nan,2,2,0,0
132344826,132340209,40.154923888590545,116.2649376527992,99.48386,99.47768,0.16504557,0.34163606,0.4115591,nan,2,2,0,0
132552032,132547977,40.154924881573486,116.2649693336755,99.48848,99.48131,0.16504557,0.34190002,0.41161585,nan,2,2,0,0
132752681,132748257,40.15492584662116,116.26499989994501,99.49243,99.485954,0.16504557,0.3424457,0.41176853,nan,2,2,0,0
132948822,132944910,40.154926752139865,116.26502989023426,99.494514,99.48809,0.16504557,0.3422748,0.41166314,nan,2,2,0,0
133152470,133148283,40.154927690522925,116.26506089817923,99.49788,99.48979,0.16504557,0.34209567,0.4115627,nan,2,2,0,0
133352847,133348710,40.15492860889238,116.26509142279235,99.49547,99.48774,0.16504557,0.34256616,0.41169697,nan,2,2,0,0
133544608,133540025,40.15492954023703,116.26512058144215,99.49682,99.489006,0.16504557,0.34530303,0.41176423,nan,2,2,0,0
133750382,133745226,40.154930571347485,116.26515179838786,99.499886,99.49136,0.16504557,0.34207866,0.41145086,nan,2,2,0,0
133948861,133944222,40.15493167249176,116.26518209392565,99.49765,99.491135,0.16504557,0.3421513,0.4114403,nan,2,2,0,0
134152882,134148726,40.154932908060225,116.26521317587851,99.50212,99.495476,0.16504557,0.34222898,0.41143405,nan,2,2,0,0
134352600,134348115,40.154934277875945,116.26524347575614,99.505554,99.49957,0.16504557,0.34199297,0.4117211,nan,2,2,0,0
134552889,134548582,40.154935785175134,116.26527391353905,99.50327,99.49581,0.16504557,0.3421684,0.41134462,nan,2,2,0,0
134752780,134748199,40.15493733308852,116.26530429746471,99.50346,99.49731,0.16504557,0.34135923,0.4114244,nan,2,2,0,0
134948759,134944495,40.15493900837278,116.26533415282996,99.50537,99.49944,0.16504557,0.3417065,0.41151574,nan,2,2,0,0
135145187,135139926,40.154940859034014,116.26536384590862,99.505455,99.499405,0.16504557,0.34132972,0.41134888,nan,2,2,0,0
135352755,135348410,40.15494305509277,116.26539555781204,99.505646,99.50107,0.16504557,0.34196678,0.4115345,nan,2,2,0,0
135549379,135544691,40.15494534951531,116.26542541540456,99.50378,99.50134,0.16504557,0.34185514,0.41145447,nan,2,2,0,0
135752990,135748896,40.15494791803409,116.26545640415246,99.50557,99.50309,0.16504557,0.34176478,0.4113821,nan,2,2,0,0
135948692,135944231,40.154950623306654,116.26548607219682,99.503815,99.50152,0.16504557,0.3419834,0.41141236,nan,2,2,0,0
136149084,136144683,40.15495367461101,116.26551641177423,99.506485,99.50339,0.16504557,0.34152102,0.4116014,nan,2,2,0,0
136348958,136344650,40.15495691583533,116.26554663359508,99.50774,99.50385,0.16504557,0.3417769,0.4116488,nan,2,2,0,0
136552492,136548287,40.15496045644603,116.26557734452854,99.50597,99.500175,0.16504557,0.34110096,0.4113588,nan,2,2,0,0
136752594,136748539,40.154964193318655,116.26560748525743,99.50295,99.49717,0.16504557,0.3415436,0.41148114,nan,2,2,0,0
136948859,136944026,40.154968164892004,116.26563682525251,99.506294,99.50044,0.16504557,0.34096625,0.41123736,nan,2,2,0,0
137148705,137144396,40.15497251789804,116.26566687628618,99.51169,99.50401,0.16504557,0.34151602,0.41138464,nan,2,2,0,0
137356584,137352362,40.154977351386805,116.26569803336598,99.511856,99.505585,0.16504557,0.34164318,0.41139,nan,2,2,0,0
137552622,137548073,40.154982121047546,116.26572728010058,99.51555,99.5093,0.16504557,0.34210894,0.41151145,nan,2,2,0,0
137748768,137744327,40.15498705756576,116.2657565491218,99.518326,99.51075,0.16504557,0.3423537,0.41156,nan,2,2,0,0
137952510,137947970,40.15499231484138,116.2657868394275,99.5107,99.50418,0.16504557,0.3418755,0.41134936,nan,2,2,0,0
138152681,138148434,40.15499775109082,116.2658165437286,99.50633,99.4987,0.16504557,0.34254768,0.41153738,nan,2,2,0,0
138352402,138347859,40.15500337205216,116.26584604337629,99.503365,99.49552,0.16504557,0.34205043,0.41172507,nan,2,2,0,0
138553029,138548354,40.15500924412874,116.26587554449442,99.50192,99.494156,0.16504557,0.3426326,0.41148514,nan,2,2,0,0
138752579,138747959,40.155015314363105,116.26590487686987,99.50375,99.49604,0.16504557,0.3420896,0.41166547,nan,2,2,0,0
138952829,138948589,40.155021654096245,116.26593428038142,99.50336,99.49468,0.16504557,0.34232152,0.41171065,nan,2,2,0,0
139152731,139148706,40.15502824604944,116.26596358410193,99.50348,99.49447,0.16504557,0.34220698,0.41163152,nan,2,2,0,0
139344346,139340185,40.1550347417547,116.26599155703964,99.50278,99.49524,0.16504557,0.34470874,0.41163242,nan,2,2,0,0
139548648,139544530,40.15504194761159,116.26602128169434,99.50363,99.495125,0.16504557,0.34182438,0.4114072,nan,2,2,0,0
139752479,139748046,40.15504944659109,116.26605077082898,99.50403,99.49465,0.16504557,0.3415034,0.4112578,nan,2,2,0,0
139952250,139947875,40.15505702931476,116.26607962870463,99.49895,99.48915,0.16504557,0.34163296,0.41126275,nan,2,2,0,0
140153361,140148329,40.15506473992074,116.26610855482865,99.49483,99.48422,0.16504557,0.34170374,0.4112483,nan,2,2,0,0
140345051,140339696,40.15507221074577,116.26613610562578,99.48894,99.47806,0.16504557,0.34145367,0.41151288,nan,2,2,0,0
140549104,140544814,40.15508034011086,116.26616558983505,99.484024,99.47365,0.16504557,0.34184432,0.41161937,nan,2,2,0,0
140748728,140743950,40.15508849478934,116.2661940650187,99.48302,99.47188,0.16504557,0.34180894,0.41156656,nan,2,2,0,0
140948635,140944300,40.1550969837387,116.2662225919584,99.48248,99.4719,0.16504557,0.3421172,0.4116342,nan,2,2,0,0
141148819,141144975,40.15510579654193,116.26625099972762,99.48386,99.47402,0.16504557,0.34206018,0.41156808,nan,2,2,0,0
141353131,141347807,40.155114929612225,116.26627955476931,99.48491,99.47397,0.16504557,0.34231415,0.4116154,nan,2,2,0,0
141548766,141544251,40.15512398672523,116.26630709574584,99.479904,99.46787,0.16504557,0.34251577,0.41163272,nan,2,2,0,0
141752192,141748628,40.155133707383044,116.26633563220255,99.475555,99.46356,0.16504557,0.34198168,0.41139683,nan,2,2,0,0
141953025,141948661,40.155143476667966,116.266363389453,99.474045,99.46453,0.16504557,0.34255567,0.41153932,nan,2,2,0,0
142148449,142144356,40.15515332641578,116.26639038258256,99.47385,99.46417,0.16504557,0.34262574,0.41192615,nan,2,2,0,0
142353073,142348688,40.15516397886209,116.2664182692304,99.47584,99.4668,0.16504557,0.3423507,0.4117705,nan,2,2,0,0
142552697,142548547,40.15517480481622,116.26644531420652,99.47773,99.46827,0.16504557,0.34279734,0.4118803,nan,2,2,0,0
142752342,142748006,40.15518601968294,116.26647206406965,99.47849,99.46898,0.16504557,0.34221858,0.41162688,nan,2,2,0,0
142952215,142947802,40.15519769592052,116.26649847861131,99.480736,99.47381,0.16504557,0.34209493,0.4115433,nan,2,2,0,0
143152253,143148060,40.15520982995727,116.26652461313095,99.48378,99.47767,0.16504557,0.34231424,0.41158432,nan,2,2,0,0
143352655,143348357,40.15522237212173,116.26655041304134,99.488785,99.48357,0.16504557,0.34247145,0.41160247,nan,2,2,0,0
143552468,143548284,40.15523522498475,116.26657586755775,99.49451,99.491486,0.16504557,0.34230298,0.41150036,nan,2,2,0,0
143744454,143739657,40.15524785316392,116.26660001210111,99.49548,99.492035,0.16504557,0.34478405,0.41191188,nan,2,2,0,0
143952838,143948206,40.15526188172128,116.2666260528185,99.496346,99.49409,0.16504557,0.34178856,0.4116427,nan,2,2,0,0
144152306,144147993,40.15527556099341,116.26665079503815,99.496765,99.49359,0.16504557,0.3417555,0.4115919,nan,2,2,0,0
144348612,144344392,40.15528925650386,116.266674856438,99.497246,99.49439,0.16504557,0.34179643,0.41156515,nan,2,2,0,0
144552282,144547827,40.155303728658815,116.26669954850695,99.49667,99.493965,0.16504557,0.34149754,0.411423,nan,2,2,0,0
144752588,144748243,40.15531825382707,116.26672358346099,99.49472,99.49296,0.16504557,0.3419214,0.4115388,nan,2,2,0,0
144948262,144944051,40.15533271977199,116.26674678245902,99.49179,99.48957,0.16504557,0.34130472,0.41127944,nan,2,2,0,0
145148390,145144069,40.15534771703204,116.26677021566171,99.4913,99.48992,0.16504557,0.34174773,0.41139236,nan,2,2,0,0
145344637,145339978,40.15536269266611,116.26679285313088,99.492966,99.492256,0.16504557,0.34147137,0.41125718,nan,2,2,0,0
145548638,145544356,40.155378655727866,116.26681605881741,99.49501,99.494514,0.16504557,0.3418854,0.4113572,nan,2,2,0,0
145751948,145747698,40.15539482822876,116.26683877259018,99.49562,99.495804,0.16504557,0.3415937,0.41160437,nan,2,2,0,0
145952979,145948571,40.15541110094343,116.26686091687145,99.49393,99.495415,0.16504557,0.34238163,0.41143012,nan,2,2,0,0
146148637,146144407,40.15542716979639,116.2668822819129,99.49246,99.495705,0.16504557,0.34259534,0.41186136,nan,2,2,0,0
146352677,146348965,40.15544414977168,116.26690431929954,99.490425,99.49395,0.16504557,0.3427447,0.41186455,nan,2,2,0,0
146552662,146548100,40.15546086358936,116.26692552285644,99.48741,99.4893,0.16504557,0.3422098,0.4116259,nan,2,2,0,0
146752653,146748297,40.15547781316477,116.26694662231898,99.481445,99.484695,0.16504557,0.34180674,0.4114428,nan,2,2,0,0
146952105,146948096,40.155494892025196,116.26696743310113,99.47766,99.480705,0.16504557,0.34210572,0.41150755,nan,2,2,0,0
147157105,147152533,40.155512558733804,116.2669885341163,99.47598,99.479,0.16504557,0.3423728,0.41155264,nan,2,2,0,0
147348418,147344039,40.155529186205534,116.26700817422682,99.47783,99.481316,0.16504557,0.34223416,0.41146597,nan,2,2,0,0
147552027,147547844,40.15554693499188,116.26702896430233,99.481125,99.484764,0.16504557,0.34239176,0.41148335,nan,2,2,0,0
147752485,147748239,40.15556443680221,116.26704932201135,99.48488,99.4899,0.16504557,0.34255078,0.41150108,nan,2,2,0,0
147948394,147943880,40.155581549755375,116.26706912093462,99.489044,99.49391,0.16504557,0.3420212,0.4116804,nan,2,2,0,0
148144388,148140024,40.1555988029566,116.2670888322687,99.49054,99.49463,0.16504557,0.34217805,0.41170204,nan,2,2,0,0
148352705,148348514,40.15561722494871,116.26710973092244,99.48893,99.49348,0.16504557,0.34292778,0.41151032,nan,2,2,0,0
148548719,148544346,40.15563452206462,116.26712932306513,99.49025,99.49482,0.16504557,0.3425814,0.411757,nan,2,2,0,0
148752675,148748270,40.15565255986039,116.26714968233507,99.49077,99.49617,0.16504557,0.34198347,0.4115011,nan,2,2,0,0
148953152,148947584,40.1556702197726,116.26716954530151,99.49429,99.49914,0.16504557,0.34155095,0.41130728,nan,2,2,0,0
149152400,149148234,40.155688004001924,116.26718948226787,99.49428,99.50008,0.16504557,0.34153774,0.4112702,nan,2,2,0,0
149349128,149344685,40.15570544437316,116.26720900839807,99.493095,99.49822,0.16504557,0.3409647,0.4114199,nan,2,2,0,0
149548891,149544674,40.15572319429167,116.26722891593494,99.49196,99.495575,0.16504557,0.34110442,0.4114394,nan,2,2,0,0
149752416,149748242,40.15574125211129,116.26724919554249,99.486465,99.48877,0.16504557,0.34094417,0.41134772,nan,2,2,0,0
149957276,149952429,40.155759332150005,116.26726957427297,99.48332,99.48536,0.16504557,0.34187376,0.41124836,nan,2,2,0,0
150156330,150151814,40.155776998627175,116.26728945453914,99.47908,99.481804,0.16504557,0.34163925,0.41152456,nan,2,2,0,0
150348542,150344337,40.15579406959813,116.26730863450588,99.477036,99.47908,0.16504557,0.34176147,0.4115281,nan,2,2,0,0
150553035,150548529,40.15581219052514,116.26732894504637,99.47461,99.47711,0.16504557,0.3414706,0.41138107,nan,2,2,0,0
150748582,150744089,40.155829565566826,116.26734830677523,99.475464,99.478294,0.16504557,0.34187248,0.4114837,nan,2,2,0,0
150952553,150948031,40.15584773178132,116.26736849381568,99.47461,99.47921,0.16504557,0.34219193,0.41155896,nan,2,2,0,0
151144757,151140098,40.15586488097121,116.26738750865101,99.47699,99.48326,0.16504557,0.3415208,0.41127536,nan,2,2,0,0
151352702,151348444,40.15588342477947,116.2674082408661,99.48061,99.48618,0.16504557,0.34196398,0.4113864,nan,2,2,0,0
151552320,151547896,40.155901023154655,116.2674282978683,99.47852,99.48346,0.16504557,0.34169683,0.4112561,nan,2,2,0,0
151748661,151744612,40.155918227699374,116.26744822698927,99.480316,99.4859,0.16504557,0.34211764,0.41135898,nan,2,2,0,0
151948035,151943720,40.155935544735335,116.26746852743712,99.48217,99.485954,0.16504557,0.3450753,0.41191655,nan,2,2,0,0
152152326,152147880,40.15595325501263,116.26748936084303,99.47664,99.48105,0.16504557,0.34207165,0.41165572,nan,2,2,0,0
152352068,152347781,40.15597061594494,116.26750976689111,99.475655,99.48059,0.16504557,0.34241393,0.41132835,nan,2,2,0,0
