timestamp,timestamp_sample,lat,lon,alt,alt_ellipsoid,delta_alt,eph,epv,terrain_alt,lat_lon_reset_counter,alt_reset_counter,terrain_alt_valid,dead_reckoning
61454625,61450495,40.15177891890611,116.25797189992466,49.824856,49.862003,0.0016586967,0.76811457,0.84999996,nan,2,2,0,0
61466619,61462511,40.15177891849583,116.2579718998692,49.82462,49.861767,0.0016586967,0.7681269,0.85001254,nan,2,2,0,0
61654873,61650625,40.15177891563721,116.25797192815348,49.825775,49.8631,0.0016586967,0.50720245,0.4673332,nan,2,2,0,0
61850872,61845927,40.15177888565709,116.25797185630208,49.831722,49.871216,0.0016586967,0.4375098,0.43445653,nan,2,2,0,0
62054764,62050666,40.15177875907299,116.25797170406803,49.836132,49.87678,0.0016586967,0.40501893,0.4232178,nan,2,2,0,0
62258959,62254157,40.15177872469009,116.25797159895232,49.840347,49.88115,0.0016586967,0.38592395,0.42045945,nan,2,2,0,0
62450523,62445965,40.151778758577734,116.25797158772886,49.839966,49.879013,0.0016586967,0.3738754,0.41823176,nan,2,2,0,0
62655407,62651290,40.15177874132147,116.25797162450404,49.839527,49.878532,0.0016586967,0.36558726,0.41685244,nan,2,2,0,0
62854801,62850590,40.15177873484908,116.25797165678081,49.839893,49.877613,0.0016586967,0.3598928,0.4160833,nan,2,2,0,0
63050616,63046219,40.15177876983707,116.25797164561352,49.83825,49.87734,0.0016586967,0.35501826,0.41500846,nan,2,2,0,0
63250811,63246478,40.15177880630279,116.25797161468395,49.839622,49.877552,0.0016586967,0.35187003,0.4145559,nan,2,2,0,0
63454457,63450024,40.15177879671086,116.25797161365351,49.840504,49.87748,0.0016586967,0.34918857,0.41396865,nan,2,2,0,0
63659244,63654704,40.15177880966031,116.25797160809654,49.83965,49.876637,0.0016586967,0.3471807,0.4135102,nan,2,2,0,0
63854506,63850260,40.15177880227749,116.25797156656367,49.839622,49.876953,0.0016586967,0.34588957,0.41323835,nan,2,2,0,0
64046748,64042438,40.15177877854898,116.25797154853633,49.83994,49.878433,0.0016586967,0.3448949,0.41349187,nan,2,2,0,0
64251499,64246224,40.15177877386675,116.25797155124594,49.843704,49.881702,0.0016586967,0.34411687,0.41317418,nan,2,2,0,0
64450876,64446530,40.15177877919996,116.25797155437161,49.84634,49.88472,0.0016586967,0.3436402,0.41244298,nan,2,2,0,0
64659127,64654593,40.1517787626066,116.25797156469767,49.84714,49.884304,0.0016586967,0.34356776,0.41279733,nan,2,2,0,0
64854495,64850479,40.15177874125146,116.25797158457375,49.845062,49.88366,0.0016586967,0.34267926,0.41231418,nan,2,2,0,0
65050842,65046521,40.15177874286578,116.25797164150916,49.846073,49.885242,0.0016586967,0.3423051,0.41203174,nan,2,2,0,0
65258941,65254200,40.151778760379244,116.25797167473537,49.848446,49.887817,0.0016586967,0.3420393,0.41180167,nan,2,2,0,0
65454686,65450631,40.15177875073121,116.25797168444895,49.8505,49.88863,0.0016586967,0.34224236,0.41174048,nan,2,2,0,0
65654599,65650193,40.151778750650315,116.25797166730096,49.851757,49.89084,0.0016586967,0.34206778,0.41155246,nan,2,2,0,0
65858769,65854413,40.151779676032874,116.25797164264182,49.8541,49.891457,0.0016586967,0.34302226,0.4117469,nan,2,2,0,0
66054604,66050421,40.15178308336516,116.2579715770121,49.85254,49.89013,0.0016586967,0.34403095,0.41197178,nan,2,2,0,0
66254229,66250013,40.151789001987005,116.25797150006971,49.8564,49.893356,0.0016586967,0.343421,0.41172487,nan,2,2,0,0
66450470,66446099,40.1517970787259,116.25797142706706,49.891907,49.927963,0.0016586967,0.34397244,0.4124154,nan,2,2,0,0
66654836,66650657,40.151807630457974,116.25797136981934,49.94845,49.98554,0.0016586967,0.34336463,0.41235146,nan,2,2,0,0
66850634,66846295,40.15181885913888,116.25797141517346,50.106567,50.143715,0.0016586967,0.3429435,0.412453,nan,2,2,0,0
67050706,67046368,40.15183027896645,116.25797153451406,50.500763,50.538754,0.0016586967,0.34269643,0.4126194,nan,2,2,0,0
67254460,67250368,40.151841455227185,116.25797171463385,51.085754,51.123207,0.0016586967,0.3425507,0.41275984,nan,2,2,0,0
67458390,67453809,40.15185300710007,116.25797198402839,51.708366,51.74606,0.0016586967,0.3427787,0.4130647,nan,2,2,0,0
67650629,67646036,40.15186436226866,116.25797232808456,52.332737,52.371315,0.0016586967,0.34297833,0.41336915,nan,2,2,0,0
67850908,67846573,40.15187638240671,116.25797282993327,53.053013,53.09162,0.0016586967,0.34342343,0.41384175,nan,2,2,0,0
68058776,68054397,40.151889513814716,116.25797352375086,53.79965,53.837986,0.0016586967,0.343337,0.41397148,nan,2,2,0,0
68254936,68250814,40.15190205737402,116.2579744716641,54.566868,54.60515,0.0016586967,0.3426661,0.4137018,nan,2,2,0,0
68454937,68450731,40.15191531681347,116.25797571401728,55.360023,55.39818,0.0016586967,0.34314543,0.41456023,nan,2,2,0,0
68650775,68646525,40.151928638913525,116.25797725479977,56.177288,56.216236,0.0016586967,0.34324706,0.4144921,nan,2,2,0,0
68859018,68854519,40.15194319829089,116.25797923262688,57.071503,57.10848,0.0016586967,0.34299445,0.41420266,nan,2,2,0,0
69050573,69046259,40.151956962531685,116.25798140169367,57.918068,57.95437,0.0016586967,0.3432616,0.41415292,nan,2,2,0,0
69250550,69246237,40.151971586936675,116.25798408128257,58.83531,58.87045,0.0016586967,0.34352002,0.41408342,nan,2,2,0,0
69455033,69450681,40.151986942753936,116.25798712137592,59.79962,59.8343,0.0016586967,0.34413433,0.41413665,nan,2,2,0,0
69654739,69650593,40.15200226534534,116.25799035248109,60.776028,60.80996,0.0016586967,0.34461838,0.41411886,nan,2,2,0,0
69850373,69845936,40.15201757695858,116.25799376748265,61.753475,61.78779,0.0016586967,0.3477423,0.41458032,nan,2,2,0,0
70050820,70046491,40.15203355886715,116.25799756640338,62.787193,62.82218,0.0016586967,0.3440122,0.41347677,nan,2,2,0,0
70250461,70246171,40.15204976429883,116.25800179373742,63.84369,63.878563,0.0016586967,0.34760493,0.414115,nan,2,2,0,0
70458229,70453784,40.15206686047859,116.25800669870357,64.97567,65.01103,0.0016586967,0.34359977,0.4135008,nan,2,2,0,0
70650572,70646329,40.15208293230338,116.25801181229214,66.04577,66.081894,0.0016586967,0.34384632,0.41341534,nan,2,2,0,0
70850449,70846303,40.15209987616191,116.25801773746704,67.17882,67.2147,0.0016586967,0.3436203,0.41314518,nan,2,2,0,0
71054062,71049935,40.15211735917916,116.25802436877113,68.35895,68.39509,0.0016586967,0.34382132,0.41304776,nan,2,2,0,0
71254705,71250980,40.15213481104557,116.25803149911553,69.545586,69.580246,0.0016586967,0.34398085,0.41294226,nan,2,2,0,0
71450537,71446239,40.15215190502704,116.25803890947205,70.71851,70.751495,0.0016586967,0.34405664,0.41281056,nan,2,2,0,0
71654647,71650281,40.15216992044307,116.25804708616035,71.96466,71.99894,0.0016586967,0.34445468,0.41279647,nan,2,2,0,0
71859154,71854096,40.152188112913514,116.25805570551057,73.236786,73.27039,0.0016586967,0.34361908,0.4123628,nan,2,2,0,0
72050331,72045724,40.152205408511264,116.25806423102854,74.449066,74.48105,0.0016586967,0.3436878,0.41272113,nan,2,2,0,0
72246278,72241730,40.152223217022716,116.25807345700633,75.70473,75.73636,0.0016586967,0.3472607,0.41284835,nan,2,2,0,0
72454964,72450649,40.15224237535187,116.25808378218476,77.06071,77.08974,0.0016586967,0.34372506,0.41245422,nan,2,2,0,0
72659216,72654001,40.152261126771684,116.25809433625454,78.40185,78.42915,0.0016586967,0.34336692,0.4122089,nan,2,2,0,0
72854799,72850572,40.15227928887501,116.25810512197573,79.7159,79.74258,0.0016586967,0.3435129,0.41213125,nan,2,2,0,0
73054637,73050523,40.15229779702487,116.2581167667961,81.073135,81.100296,0.0016586967,0.34358945,0.41203907,nan,2,2,0,0
73254629,73249891,40.152316306304975,116.25812894586706,82.4468,82.47569,0.0016586967,0.342928,0.41170773,nan,2,2,0,0
73450456,73445904,40.15233454284739,116.2581415017349,83.8138,83.842545,0.0016586967,0.3428016,0.4115541,nan,2,2,0,0
73655142,73650976,40.15235368737419,116.25815511580002,85.260864,85.29008,0.0016586967,0.3433989,0.41162166,nan,2,2,0,0
73850867,73846494,40.15237203424149,116.25816865756218,86.653114,86.682106,0.0016586967,0.34347284,0.41152963,nan,2,2,0,0
74054173,74049830,40.152391111042334,116.2581833407042,88.116974,88.14584,0.0016586967,0.34284368,0.41163692,nan,2,2,0,0
74254828,74250702,40.152409934522225,116.2581983725587,89.58618,89.61573,0.0016586967,0.34310648,0.41160956,nan,2,2,0,0
74454443,74450103,40.15242857281325,116.25821387889145,91.05669,91.08557,0.0016586967,0.346691,0.41175285,nan,2,2,0,0
74654178,74650619,40.152447519652156,116.25823018859356,92.49988,92.528015,0.0016586967,0.34277704,0.41130927,nan,2,2,0,0
74850684,74846360,40.15246686066733,116.25824732462445,93.76253,93.78991,0.0016586967,0.34308296,0.41131067,nan,2,2,0,0
75054577,75050431,40.152487948830526,116.2582666810274,94.93022,94.95673,0.0016586967,0.343303,0.4112933,nan,2,2,0,0
75250725,75246517,40.15250921593099,116.25828665767592,95.90746,95.93388,0.0016586967,0.3434636,0.41126955,nan,2,2,0,0
75454389,75449886,40.15253222077769,116.25830890178526,96.77862,96.8037,0.0016586967,0.34320498,0.41113538,nan,2,2,0,0
75654079,75649870,40.15255585157062,116.25833244544698,97.484,97.50848,0.0016586967,0.3430271,0.41102934,nan,2,2,0,0
75850482,75846223,40.1525799536564,116.25835709810595,98.085785,98.10773,0.0016586967,0.3432611,0.41104776,nan,2,2,0,0
76054512,76050304,40.15260600220419,116.25838432291097,98.59944,98.62085,0.0016586967,0.34379497,0.4111461,nan,2,2,0,0
76253935,76249745,40.15263178274252,116.25841194702598,99.00047,99.02244,0.0016586967,0.34347442,0.41138646,nan,2,2,0,0
76446866,76442182,40.15265635459404,116.25843889160494,99.26637,99.287994,0.0016586967,0.34322086,0.41123864,nan,2,2,0,0
76654676,76650312,40.15268237354218,116.25846808752277,99.52063,99.54154,0.0016586967,0.34363854,0.41125718,nan,2,2,0,0
76855169,76850597,40.15270687950655,116.25849633185801,99.68413,99.70239,0.0016586967,0.34323448,0.41104504,nan,2,2,0,0
77054985,77050590,40.15273067655576,116.25852477132022,99.80658,99.821945,0.0016586967,0.3431978,0.41093633,nan,2,2,0,0
77250851,77246022,40.15275331623942,116.25855280858343,99.88326,99.8966,0.0016586967,0.34625444,0.41098356,nan,2,2,0,0
77459093,77454554,40.152776831610986,116.25858283088603,99.93326,99.94629,0.0016586967,0.34304792,0.41073853,nan,2,2,0,0
77658990,77653827,40.15279862967127,116.25861175060741,99.988205,99.99889,0.0016586967,0.34272316,0.410603,nan,2,2,0,0
77846493,77842432,40.15281874665075,116.25863920090427,100.00133,100.011635,0.0016586967,0.3427764,0.41058412,nan,2,2,0,0
78053974,78049822,40.15284029185028,116.25866955103659,100.02209,100.02959,0.0016586967,0.34558958,0.41099337,nan,2,2,0,0
78250240,78245770,40.152860025125435,116.2586982742866,100.03616,100.04232,0.0016586967,0.34197,0.41069743,nan,2,2,0,0
78454457,78450289,40.15288008155038,116.25872843632867,100.02533,100.03089,0.0016586967,0.34258175,0.4109087,nan,2,2,0,0
78658726,78654271,40.15289961102191,116.25875850259895,100.02809,100.033745,0.0016586967,0.34244087,0.41090837,nan,2,2,0,0
78859321,78854347,40.15291845134359,116.25878788061937,100.02898,100.033585,0.0016586967,0.34314188,0.41080433,nan,2,2,0,0
79058399,79053812,40.15293677898397,116.25881713171628,100.02646,100.03022,0.0016586967,0.34332457,0.41128054,nan,2,2,0,0
79254298,79250038,40.152954326767684,116.25884589061529,100.02385,100.02773,0.0016586967,0.3430698,0.41125888,nan,2,2,0,0
79454968,79450563,40.15297177779559,116.25887524963407,100.022354,100.02615,0.0016586967,0.3424828,0.4111154,nan,2,2,0,0
79654754,79650653,40.15298867360179,116.25890455399093,100.01175,100.01386,0.0016586967,0.34274563,0.4112449,nan,2,2,0,0
79850705,79846278,40.15300469047583,116.25893324190545,100.001366,100.00097,0.0016586967,0.34332183,0.4114688,nan,2,2,0,0
80058763,80053750,40.153021270364725,116.25896364730478,99.98613,99.98335,0.0016586967,0.34268424,0.41168648,nan,2,2,0,0
80250666,80246211,40.15303631361453,116.25899166304094,99.98448,99.97945,0.0016586967,0.34296304,0.41138843,nan,2,2,0,0
80450736,80446310,40.15305171747739,116.25902068106794,99.96289,99.95814,0.0016586967,0.34310684,0.41184717,nan,2,2,0,0
80658477,80653635,40.15306744229602,116.25905052292508,99.96299,99.95777,0.0016586967,0.343187,0.41187018,nan,2,2,0,0
80850185,80845637,40.15308178787486,116.25907802924789,99.95006,99.943306,0.0016586967,0.34289628,0.41176102,nan,2,2,0,0
81049941,81045539,40.15309652494181,116.2591065572525,99.92769,99.920654,0.0016586967,0.34663683,0.41210276,nan,2,2,0,0
81254271,81250190,40.15311138152013,116.25913559776417,99.92831,99.92223,0.0016586967,0.34325364,0.41183218,nan,2,2,0,0
81453939,81450008,40.15312570580127,116.25916384597564,99.92549,99.91892,0.0016586967,0.34351358,0.41188386,nan,2,2,0,0
81650845,81646205,40.153139570787516,116.25919152065477,99.91417,99.90639,0.0016586967,0.34304112,0.41168725,nan,2,2,0,0
81858471,81854065,40.15315410733245,116.25922075671514,99.9055,99.89803,0.0016586967,0.34332561,0.41174462,nan,2,2,0,0
82050690,82046272,40.153167323647274,116.25924775095376,99.899216,99.88872,0.0016586967,0.34723288,0.41219088,nan,2,2,0,0
82253984,82249827,40.153181137693224,116.25927628404048,99.88603,99.87388,0.0016586967,0.34637353,0.4119864,nan,2,2,0,0
82450051,82445617,40.15319426218682,116.25930366412761,99.86557,99.85274,0.0016586967,0.34597442,0.41236225,nan,2,2,0,0
82654535,82650226,40.15320788561284,116.25933218717903,99.84709,99.83193,0.0016586967,0.345246,0.4121575,nan,2,2,0,0
82854169,82849870,40.15322109256176,116.25935990877221,99.84103,99.82505,0.0016586967,0.34404606,0.41178203,nan,2,2,0,0
83050633,83045944,40.153234064994045,116.25938693295268,99.8314,99.81613,0.0016586967,0.34376335,0.41171715,nan,2,2,0,0
83254919,83250589,40.15324770651919,116.25941499031408,99.82684,99.81026,0.0016586967,0.3435598,0.41166228,nan,2,2,0,0
83450640,83446093,40.15326076251384,116.25944163604949,99.820526,99.8035,0.0016586967,0.34305674,0.41151127,nan,2,2,0,0
83654096,83650109,40.15327439799346,116.25946925805086,99.81899,99.80006,0.0016586967,0.34299165,0.4114959,nan,2,2,0,0
83854813,83850435,40.15328784712304,116.25949620364607,99.815,99.79665,0.0016586967,0.34298018,0.4114909,nan,2,2,0,0
84050457,84045737,40.15330102262926,116.25952234715518,99.806,99.78703,0.0016586967,0.34571788,0.41198087,nan,2,2,0,0
84250482,84246033,40.153314626542084,116.25954891762824,99.80495,99.78438,0.0016586967,0.34235618,0.41126835,nan,2,2,0,0
84459189,84454709,40.153328930698585,116.2595763886965,99.79936,99.776596,0.0016586967,0.34245306,0.41168624,nan,2,2,0,0
84658470,84654452,40.153342722603355,116.2596025861135,99.78638,99.76243,0.0016586967,0.3425557,0.41169447,nan,2,2,0,0
84854601,84849847,40.15335617227085,116.25962813485789,99.77539,99.75067,0.0016586967,0.34198365,0.4114743,nan,2,2,0,0
85049856,85045799,40.15336958378452,116.25965364842172,99.76927,99.7443,0.0016586967,0.3418981,0.4114188,nan,2,2,0,0
85250982,85246019,40.15338329882756,116.25967970798206,99.75714,99.73305,0.0016586967,0.34212157,0.41147503,nan,2,2,0,0
85459125,85454551,40.153397587177956,116.25970679507076,99.753235,99.72876,0.0016586967,0.34165868,0.41129023,nan,2,2,0,0
85654680,85650412,40.15341112465165,116.25973203128076,99.75073,99.72487,0.0016586967,0.34227708,0.41148046,nan,2,2,0,0
85858435,85854044,40.153425314615234,116.25975806844295,99.74783,99.72315,0.0016586967,0.34210622,0.4113901,nan,2,2,0,0
86050260,86045629,40.153438738331914,116.25978239781706,99.74162,99.71746,0.0016586967,0.34168002,0.4116076,nan,2,2,0,0
86250635,86246065,40.15345281000519,116.25980783766956,99.73506,99.7122,0.0016586967,0.341977,0.4116741,nan,2,2,0,0
86450206,86445483,40.15346676530857,116.25983309242422,99.73671,99.71453,0.0016586967,0.3415769,0.41149023,nan,2,2,0,0
86654646,86649696,40.15348102482596,116.25985894057571,99.73781,99.71522,0.0016586967,0.34253,0.41178253,nan,2,2,0,0
86850445,86846019,40.15349471720095,116.25988377360564,99.73474,99.71187,0.0016586967,0.34228918,0.4116571,nan,2,2,0,0
87058022,87053741,40.15350921190482,116.25991003616242,99.72954,99.70665,0.0016586967,0.34243134,0.4116591,nan,2,2,0,0
87254815,87250194,40.15352291552267,116.25993479362711,99.72295,99.700356,0.0016586967,0.3422325,0.41155112,nan,2,2,0,0
87450269,87445736,40.153536601710826,116.259959361687,99.720634,99.69906,0.0016586967,0.34204614,0.41143665,nan,2,2,0,0
87654954,87650578,40.15355105894524,116.25998503556441,99.71782,99.694756,0.0016586967,0.34192833,0.41134945,nan,2,2,0,0
87855115,87850469,40.15356523226658,116.26001000528953,99.7146,99.68979,0.0016586967,0.34213302,0.41137826,nan,2,2,0,0
88049786,88045606,40.153579058001974,116.26003430802436,99.71114,99.68805,0.0016586967,0.3449993,0.41190216,nan,2,2,0,0
88258282,88253991,40.15359380860353,116.26006023814607,99.707565,99.686775,0.0016586967,0.34224424,0.41173655,nan,2,2,0,0
88454528,88450106,40.1536077468533,116.26008454700921,99.70691,99.68776,0.0016586967,0.34245345,0.4113649,nan,2,2,0,0
88654168,88649686,40.153621965031604,116.26010921389361,99.70654,99.68669,0.0016586967,0.3419519,0.41155204,nan,2,2,0,0
88858949,88854403,40.153636560701486,116.26013445999605,99.70386,99.68553,0.0016586967,0.34249154,0.41170266,nan,2,2,0,0
89051020,89046360,40.15365022957393,116.260158130078,99.69808,99.67784,0.0016586967,0.34227794,0.4115918,nan,2,2,0,0
89246106,89241860,40.15366411922906,116.26018224489714,99.69328,99.67288,0.0016586967,0.34507316,0.41167942,nan,2,2,0,0
89458385,89453711,40.15367911844611,116.26020839736219,99.68692,99.66738,0.0016586967,0.34164888,0.41130272,nan,2,2,0,0
89654269,89650164,40.15369301577288,116.26023264380497,99.67401,99.65539,0.0016586967,0.34197715,0.411386,nan,2,2,0,0
89850325,89845861,40.153706801257826,116.26025678432528,99.67379,99.6559,0.0016586967,0.34191668,0.4113374,nan,2,2,0,0
90054324,90049788,40.15372114055964,116.26028196153884,99.66885,99.65289,0.0016586967,0.34216732,0.41139063,nan,2,2,0,0
90258889,90254224,40.153735474914626,116.26030720160193,99.667725,99.65046,0.0016586967,0.34272584,0.4115434,nan,2,2,0,0
90450738,90446229,40.1537489479302,116.26033090998837,99.660965,99.64403,0.0016586967,0.3425166,0.4114343,nan,2,2,0,0
90658467,90653722,40.15376353956518,116.2603565077253,99.658356,99.64078,0.0016586967,0.34225938,0.41171098,nan,2,2,0,0
90853855,90849881,40.15377735356776,116.2603806276497,99.651794,99.63477,0.0016586967,0.34209272,0.4116061,nan,2,2,0,0
91054375,91050167,40.15379150060173,116.26040523091834,99.64699,99.63044,0.0016586967,0.34255624,0.41172582,nan,2,2,0,0
91249976,91245715,40.15380531528302,116.26042922285033,99.63966,99.6232,0.0016586967,0.3449585,0.41167277,nan,2,2,0,0
91450501,91446226,40.153819539018166,116.2604537153656,99.637474,99.6218,0.0016586967,0.34192985,0.4114198,nan,2,2,0,0
91658658,91653701,40.15383429434132,116.26047907724548,99.63173,99.6176,0.0016586967,0.3421508,0.41146332,nan,2,2,0,0
91853890,91849441,40.15384829014866,116.26050290852564,99.62992,99.61637,0.0016586967,0.3423454,0.4114914,nan,2,2,0,0
92050701,92045948,40.15386246187355,116.26052677429406,99.62699,99.61281,0.0016586967,0.34241638,0.41148025,nan,2,2,0,0
92258861,92254465,40.15387760731658,116.26055198055899,99.62453,99.611176,0.0016586967,0.34245566,0.41145152,nan,2,2,0,0
92450587,92445812,40.153891548235016,116.2605750850871,99.62192,99.609535,0.0016586967,0.34247658,0.41182712,nan,2,2,0,0
92650513,92645815,40.153906129694654,116.26059921805803,99.62156,99.60873,0.0016586967,0.34184736,0.41155562,nan,2,2,0,0
92854501,92850232,40.15392100246657,116.2606239054722,99.62099,99.60783,0.0016586967,0.34235922,0.4112957,nan,2,2,0,0
93050400,93046108,40.15393522316129,116.26064754794474,99.62167,99.60851,0.0016586967,0.34215423,0.41159195,nan,2,2,0,0
93254387,93250431,40.153950052287435,116.26067213950361,99.620575,99.60786,0.0016586967,0.34224722,0.41159198,nan,2,2,0,0
93458320,93453441,40.15396475914455,116.26069655242524,99.61586,99.60289,0.0016586967,0.3420217,0.4114802,nan,2,2,0,0
93650191,93645806,40.15397862853922,116.26071967819558,99.61164,99.59682,0.0016586967,0.34484786,0.41160083,nan,2,2,0,0
93849846,93845540,40.15399305874935,116.2607436812348,99.6023,99.58826,0.0016586967,0.34150103,0.41123617,nan,2,2,0,0
94050418,94046194,40.1540076485455,116.26076778357684,99.59807,99.58398,0.0016586967,0.34208852,0.41140994,nan,2,2,0,0
94258482,94253918,40.15402279229633,116.2607927105837,99.5954,99.58165,0.0016586967,0.34222135,0.41141647,nan,2,2,0,0
94454826,94449502,40.154037018999986,116.26081613534409,99.592865,99.57889,0.0016586967,0.3417028,0.41160092,nan,2,2,0,0
94654547,94650479,40.154051588198726,116.26084017864747,99.59376,99.57817,0.0016586967,0.3419331,0.41164604,nan,2,2,0,0
94850469,94845891,40.15406578676289,116.2608635502824,99.589066,99.573685,0.0016586967,0.3417999,0.4115641,nan,2,2,0,0
95053957,95049599,40.15408067718954,116.26088788806727,99.58841,99.57351,0.0016586967,0.34192795,0.4115663,nan,2,2,0,0
95253760,95249610,40.154095328164225,116.26091176012281,99.58481,99.570244,0.0016586967,0.34176272,0.41146845,nan,2,2,0,0
95449980,95445393,40.1541095910721,116.26093515926037,99.585846,99.57092,0.0016586967,0.34193265,0.4114954,nan,2,2,0,0
95650355,95645913,40.15412422611702,116.26095910476792,99.58432,99.56817,0.0016586967,0.34237605,0.41161138,nan,2,2,0,0
95850227,95845616,40.15413889519316,116.26098288816158,99.582886,99.568085,0.0016586967,0.3417889,0.41136163,nan,2,2,0,0
96053796,96050292,40.154154053598475,116.26100714593541,99.58213,99.56871,0.0016586967,0.34234655,0.41151676,nan,2,2,0,0
96254493,96250194,40.15416899931743,116.26103070637205,99.587296,99.57369,0.0016586967,0.34210092,0.4114023,nan,2,2,0,0
96450269,96445644,40.15418368788933,116.261053570187,99.58889,99.57618,0.0016586967,0.34452268,0.4117951,nan,2,2,0,0
96656295,96655722,40.15419949260512,116.26107810092509,99.589966,99.57973,0.0016586967,0.3419263,0.4112793,nan,2,2,0,0
96854268,96851298,40.15421418802972,116.26110093747057,99.58751,99.57878,0.0016586967,0.34213045,0.4117208,nan,2,2,0,0
97049857,97045532,40.15422878959183,116.26112361458877,99.58874,99.58133,0.0016586967,0.34455824,0.41170934,nan,2,2,0,0
97250640,97245919,40.15424395156169,116.26114691977908,99.58919,99.58129,0.0016586967,0.34160334,0.41146052,nan,2,2,0,0
97449905,97445302,40.15425912121366,116.26117014634097,99.590836,99.582565,0.0016586967,0.34123355,0.41129056,nan,2,2,0,0
97650845,97645397,40.154274384171785,116.26119346699744,99.588234,99.58141,0.0016586967,0.341561,0.41137052,nan,2,2,0,0
97854019,97849685,40.15429003161985,116.26121719847401,99.58595,99.58127,0.0016586967,0.34181184,0.41142142,nan,2,2,0,0
98057992,98053841,40.154305682907236,116.26124086460854,99.58586,99.57931,0.0016586967,0.34204707,0.41146612,nan,2,2,0,0
98254191,98249652,40.15432065001049,116.26126356083653,99.58294,99.57711,0.0016586967,0.34192404,0.41138577,nan,2,2,0,0
98454561,98450239,40.15433598184089,116.26128674939575,99.579346,99.57352,0.0016586967,0.34213686,0.41142938,nan,2,2,0,0
98658369,98655016,40.15435162295904,116.26131042848884,99.5782,99.571724,0.0016586967,0.34193873,0.41132632,nan,2,2,0,0
98854377,98850195,40.15436645172987,116.26133296746201,99.577354,99.569855,0.0016586967,0.34216738,0.41137245,nan,2,2,0,0
99058323,99053494,40.15438187821997,116.26135657187623,99.57323,99.566444,0.0016586967,0.3416889,0.41156802,nan,2,2,0,0
99250599,99246020,40.154396479190694,116.26137899774672,99.56908,99.5616,0.0016586967,0.34135914,0.41140848,nan,2,2,0,0
99458905,99454394,40.154412178177495,116.26140341408427,99.56675,99.559746,0.0016586967,0.34138596,0.41138074,nan,2,2,0,0
99650262,99645821,40.154426473397045,116.26142595917514,99.56204,99.556145,0.0016586967,0.34181324,0.4114893,nan,2,2,0,0
99854363,99850361,40.15444159383448,116.26145025664789,99.56211,99.557,0.0016586967,0.34207794,0.41154152,nan,2,2,0,0
100058313,100053616,40.154456446675724,116.26147459361691,99.562996,99.55777,0.0016586967,0.3422458,0.41156253,nan,2,2,0,0
100258641,100254526,40.15447091583293,116.26149880633352,99.56345,99.5583,0.0016586967,0.34211943,0.41147634,nan,2,2,0,0
100450438,100445636,40.154484493598446,116.26152201142337,99.56289,99.55815,0.0016586967,0.34169504,0.41129416,nan,2,2,0,0
100654736,100649465,40.15449876017749,116.26154698253555,99.56338,99.559006,0.0016586967,0.3416308,0.41123414,nan,2,2,0,0
100858661,100853811,40.15451278385331,116.26157223014036,99.56346,99.55916,0.0016586967,0.34188965,0.41168746,nan,2,2,0,0
101058515,101053803,40.154526277569644,116.26159711828373,99.56535,99.56085,0.0016586967,0.3418642,0.4112396,nan,2,2,0,0
101253945,101249886,40.154539273433834,116.26162176366905,99.566216,99.56091,0.0016586967,0.34181672,0.4115836,nan,2,2,0,0
101458725,101454069,40.15455256319012,116.26164767090312,99.560776,99.55439,0.0016586967,0.3427073,0.41144466,nan,2,2,0,0
101657839,101653289,40.154565284565344,116.26167316732345,99.55839,99.55089,0.0016586967,0.34246188,0.41173097,nan,2,2,0,0
101850470,101845798,40.15457739777429,116.26169794231868,99.554665,99.54682,0.0016586967,0.3422041,0.41160053,nan,2,2,0,0
102054456,102050330,40.15459009467972,116.26172444886203,99.54727,99.539055,0.0016586967,0.34231603,0.41159508,nan,2,2,0,0
102253769,102249735,40.15460226080677,116.26175045625774,99.54628,99.53771,0.0016586967,0.3447278,0.4119834,nan,2,2,0,0
102450218,102445445,40.15461394692454,116.26177610778268,99.54491,99.53732,0.0016586967,0.34174165,0.4113119,nan,2,2,0,0
102654568,102650181,40.15462595135454,116.26180313929814,99.5457,99.537285,0.0016586967,0.34230968,0.41147682,nan,2,2,0,0
102849987,102845679,40.154637200798554,116.26182910178399,99.544,99.53524,0.0016586967,0.34239876,0.41147235,nan,2,2,0,0
103058295,103053776,40.154648951322386,116.26185692652263,99.54454,99.53497,0.0016586967,0.34242642,0.41144404,nan,2,2,0,0
103254278,103250179,40.15465982776078,116.26188331882967,99.54283,99.53163,0.0016586967,0.3421566,0.4117188,nan,2,2,0,0
103450322,103445871,40.15467045691075,116.26190976786631,99.53961,99.52684,0.0016586967,0.3425661,0.41182557,nan,2,2,0,0
103654395,103649866,40.154681223509016,116.26193755810289,99.53641,99.52403,0.0016586967,0.34218472,0.41164878,nan,2,2,0,0
103854022,103849708,40.15469154385631,116.26196496122803,99.53144,99.51893,0.0016586967,0.34193155,0.4115191,nan,2,2,0,0
104058700,104054095,40.15470190973073,116.26199309582117,99.52814,99.5162,0.0016586967,0.34209913,0.41154423,nan,2,2,0,0
104250000,104245553,40.15471139823433,116.2620196116133,99.52478,99.51082,0.0016586967,0.3448631,0.41164023,nan,2,2,0,0
104458493,104453589,40.15472146519087,116.26204852613883,99.519745,99.504944,0.0016586967,0.3420952,0.4114706,nan,2,2,0,0
104649774,104645394,40.154730437703904,116.26207531697472,99.519,99.50288,0.0016586967,0.3445129,0.41187632,nan,2,2,0,0
104858191,104853751,40.154739831680615,116.2621045603981,99.51535,99.4987,0.0016586967,0.3422115,0.41144785,nan,2,2,0,0
105058214,105053746,40.15474849619168,116.26213288380737,99.51195,99.49581,0.0016586967,0.34236798,0.411464,nan,2,2,0,0
105250382,105245871,40.15475646554352,116.26216030515772,99.51018,99.492584,0.0016586967,0.34243503,0.41144937,nan,2,2,0,0
105455184,105449686,40.15476460114069,116.26218953559882,99.50494,99.48637,0.0016586967,0.34209076,0.41169724,nan,2,2,0,0
105654622,105649953,40.15477235937416,116.2622183825197,99.49898,99.48125,0.0016586967,0.342493,0.41180816,nan,2,2,0,0
105850338,105845745,40.15477957283393,116.26224671161111,99.49879,99.47876,0.0016586967,0.34184843,0.41154397,nan,2,2,0,0
106050566,106046399,40.15478654802919,116.26227595887603,99.493416,99.47285,0.0016586967,0.34166422,0.41143748,nan,2,2,0,0
106250587,106245456,40.15479308299931,116.26230515512863,99.4903,99.469864,0.0016586967,0.34208515,0.4115515,nan,2,2,0,0
106454065,106449738,40.15479940577742,116.26233525519255,99.48696,99.46504,0.0016586967,0.3421574,0.41153845,nan,2,2,0,0
106658547,106654033,40.15480529820296,116.2623654967141,99.48149,99.4605,0.0016586967,0.34282276,0.41174284,nan,2,2,0,0
106857765,106854194,40.15481068427893,116.26239519347443,99.4827,99.46347,0.0016586967,0.34210226,0.4114562,nan,2,2,0,0
107049971,107045722,40.15481543503734,116.26242372891365,99.482285,99.46164,0.0016586967,0.34516698,0.4120673,nan,2,2,0,0
107253600,107249840,40.15482009267484,116.26245420844256,99.480644,99.45928,0.0016586967,0.34192035,0.41132414,nan,2,2,0,0
107457904,107453383,40.15482430926039,116.26248471200512,99.47872,99.45658,0.0016586967,0.3420243,0.41132876,nan,2,2,0,0
107654056,107650210,40.15482793525385,116.26251432392121,99.47953,99.45744,0.0016586967,0.34211832,0.41133752,nan,2,2,0,0
107850170,107845283,40.154831078485664,116.26254379576434,99.4799,99.458,0.0016586967,0.34154895,0.41150224,nan,2,2,0,0
108058619,108053732,40.15483397901166,116.26257537686566,99.47827,99.45566,0.0016586967,0.3420445,0.41164488,nan,2,2,0,0
108257971,108253635,40.154836337811545,116.26260572698543,99.47742,99.45513,0.0016586967,0.34155694,0.41143546,nan,2,2,0,0
108458621,108454034,40.1548382830016,116.26263617618669,99.47477,99.45204,0.0016586967,0.34187752,0.41150764,nan,2,2,0,0
108658466,108653462,40.15483988265292,116.26266654457139,99.46835,99.44615,0.0016586967,0.3414797,0.4113391,nan,2,2,0,0
108858198,108853746,40.15484112577884,116.26269704579461,99.465576,99.44341,0.0016586967,0.34151772,0.41131613,nan,2,2,0,0
109050557,109045727,40.15484203192061,116.26272632682058,99.46594,99.44443,0.0016586967,0.34095716,0.41108522,nan,2,2,0,0
109258808,109254037,40.15484282789823,116.26275808266143,99.468285,99.447105,0.0016586967,0.34112403,0.41110387,nan,2,2,0,0
109454667,109450240,40.15484345735184,116.26278799171102,99.472565,99.450485,0.0016586967,0.34101382,0.41141486,nan,2,2,0,0
109657978,109653474,40.15484397889343,116.26281898016651,99.474464,99.452736,0.0016586967,0.34154674,0.41156575,nan,2,2,0,0
109854284,109850289,40.154844309449985,116.26284898614901,99.47735,99.457085,0.0016586967,0.3420002,0.41128993,nan,2,2,0,0
110058435,110053936,40.15484438526376,116.26288004244041,99.479454,99.45962,0.0016586967,0.34234294,0.4117643,nan,2,2,0,0
110258169,110253375,40.154844344181186,116.26291043585034,99.48585,99.46729,0.0016586967,0.34293604,0.41151053,nan,2,2,0,0
110454323,110450190,40.154844204030276,116.2629404439535,99.48702,99.46889,0.0016586967,0.34332305,0.41200295,nan,2,2,0,0
110650278,110645818,40.15484405427232,116.26297030088055,99.489655,99.473,0.0016586967,0.3428429,0.4117784,nan,2,2,0,0
110857631,110853215,40.15484398648832,116.26300199023028,99.49448,99.47737,0.0016586967,0.3427862,0.41170835,nan,2,2,0,0
111057930,111053227,40.1548439719887,116.26303254343527,99.493774,99.47791,0.0016586967,0.34310505,0.41176844,nan,2,2,0,0
111250188,111245852,40.15484389550558,116.26306194289174,99.49365,99.47763,0.0016586967,0.34300306,0.4116814,nan,2,2,0,0
111454181,111450613,40.154843884527544,116.26309318877415,99.49387,99.47846,0.0016586967,0.34223124,0.41177362,nan,2,2,0,0
111649864,111645435,40.15484394441697,116.26312291249566,99.495346,99.48033,0.0016586967,0.34532386,0.41195256,nan,2,2,0,0
111854295,111850271,40.15484407174554,116.26315416700673,99.49754,99.48277,0.0016586967,0.34240687,0.41134053,nan,2,2,0,0
112053716,112049604,40.15484430092605,116.26318455289629,99.5006,99.48545,0.0016586967,0.34247184,0.4117261,nan,2,2,0,0
112250075,112245577,40.15484461767284,116.26321440016353,99.50543,99.48942,0.0016586967,0.3421863,0.411572,nan,2,2,0,0
112449976,112445442,40.15484502577513,116.26324488840699,99.50618,99.4891,0.0016586967,0.34225252,0.41155648,nan,2,2,0,0
112658390,112654360,40.15484533006294,116.26327677815605,99.505394,99.48891,0.0016586967,0.34257618,0.41162252,nan,2,2,0,0
112854644,112850199,40.15484547744694,116.26330668501917,99.503586,99.48671,0.0016586967,0.34228978,0.41148797,nan,2,2,0,0
113050633,113046001,40.15484560918046,116.26333657177238,99.5031,99.48525,0.0016586967,0.34261557,0.41156507,nan,2,2,0,0
113249843,113245616,40.15484579604456,116.2633670276817,99.49951,99.482376,0.0016586967,0.34528354,0.41202348,nan,2,2,0,0
113454435,113450186,40.15484606492652,116.2633982351651,99.50194,99.48573,0.0016586967,0.3420556,0.41130766,nan,2,2,0,0
113658611,113657714,40.15484643148333,116.26342989797787,99.50474,99.48933,0.0016586967,0.34251422,0.4114302,nan,2,2,0,0
113858470,113853561,40.154846871394795,116.26345976464782,99.50773,99.49355,0.0016586967,0.34675324,0.4120203,nan,2,2,0,0
114054294,114049900,40.15484740406014,116.26348969308852,99.50823,99.49447,0.0016586967,0.3459021,0.4122521,nan,2,2,0,0
114253694,114249570,40.15484810026887,116.26352007865974,99.510315,99.4993,0.0016586967,0.34950614,0.4125359,nan,2,2,0,0
114450494,114449796,40.15484889526653,116.26355057986548,99.511986,99.502625,0.0016586967,0.34918478,0.41262883,nan,2,2,0,0
114657484,114653963,40.15484975115477,116.26358169403714,99.5143,99.504074,0.0016586967,0.3477815,0.4123382,nan,2,2,0,0
114857846,114853330,40.15485060103189,116.26361208429127,99.51257,99.501854,0.0016586967,0.35125327,0.41266003,nan,2,2,0,0
115054332,115049934,40.15485143198191,116.26364210576303,99.50921,99.499626,0.0016586967,0.34933814,0.41231632,nan,2,2,0,0
115253765,115249308,40.15485232740019,116.26367253552196,99.50896,99.50139,0.0016586967,0.34778485,0.41203263,nan,2,2,0,0
115457763,115453617,40.15485321838251,116.2637037111034,99.50571,99.497635,0.0016586967,0.34660235,0.41182354,nan,2,2,0,0
115654291,115650100,40.15485401171275,116.26373365824342,99.501816,99.493164,0.0016586967,0.3453816,0.41157335,nan,2,2,0,0
115850281,115845240,40.15485477073955,116.26376339136581,99.49547,99.48661,0.0016586967,0.34774593,0.41201133,nan,2,2,0,0
116058481,116053966,40.15485561802856,116.26379518996045,99.49254,99.48447,0.0016586967,0.34403527,0.41135764,nan,2,2,0,0
116257944,116253614,40.15485649501633,116.26382566353023,99.49275,99.484375,0.0016586967,0.34336978,0.41161457,nan,2,2,0,0
116458563,116453779,40.15485749577302,116.26385614860226,99.492004,99.48521,0.0016586967,0.34350216,0.41133675,nan,2,2,0,0
116650275,116645496,40.15485862063745,116.26388537939775,99.493744,99.48698,0.0016586967,0.34266964,0.41149712,nan,2,2,0,0
116858460,116853947,40.15485997041685,116.26391710658154,99.496994,99.49034,0.0016586967,0.34262964,0.41113567,nan,2,2,0,0
117050573,117045341,40.15486126021529,116.26394625588102,99.49738,99.49088,0.0016586967,0.3426073,0.4115483,nan,2,2,0,0
117257931,117253146,40.154862787824484,116.2639779435835,99.49808,99.49177,0.0016586967,0.3425132,0.41152844,nan,2,2,0,0
117457504,117453134,40.15486434430373,116.26400845061428,99.498825,99.49364,0.0016586967,0.34249127,0.411523,nan,2,2,0,0
117653476,117649231,40.15486595652084,116.26403833894577,99.4968,99.491425,0.0016586967,0.34213597,0.41139728,nan,2,2,0,0
117853707,117849251,40.1548676170029,116.26406881403,99.49195,99.488655,0.0016586967,0.34184173,0.411286,nan,2,2,0,0
118050359,118045959,40.1548692893071,116.26409874402378,99.48987,99.485916,0.0016586967,0.3422647,0.41142064,nan,2,2,0,0
118249694,118245254,40.154871084261664,116.26412908195222,99.48598,99.48395,0.0016586967,0.34165466,0.4115853,nan,2,2,0,0
118450234,118445602,40.15487297141455,116.26415959584298,99.486786,99.48405,0.0016586967,0.34176746,0.4116049,nan,2,2,0,0
118657961,118653593,40.15487503853618,116.26419129114595,99.48634,99.485855,0.0016586967,0.34160483,0.41151488,nan,2,2,0,0
118853642,118849516,40.15487704701926,116.2642210775424,99.48537,99.48607,0.0016586967,0.34184402,0.4115688,nan,2,2,0,0
119050772,119045920,40.15487908101662,116.26425090200615,99.486,99.4876,0.0016586967,0.3420482,0.41160944,nan,2,2,0,0
119258065,119253458,40.154881226340095,116.26428244722393,99.48826,99.49144,0.0016586967,0.3418212,0.4114888,nan,2,2,0,0
119457969,119453329,40.15488333000539,116.26431276508255,99.49402,99.49622,0.0016586967,0.34137687,0.4112956,nan,2,2,0,0
119650010,119645733,40.15488541588472,116.26434196474634,99.49457,99.49784,0.0016586967,0.34169558,0.4113736,nan,2,2,0,0
119854310,119850181,40.15488768773182,116.26437303167877,99.49359,99.49691,0.0016586967,0.3416074,0.41130552,nan,2,2,0,0
120049338,120045153,40.154889882530576,116.26440263927877,99.49522,99.49907,0.0016586967,0.34183887,0.41134903,nan,2,2,0,0
120253839,120249311,40.15489214091407,116.26443369328688,99.49353,99.49859,0.0016586967,0.34198925,0.41176876,nan,2,2,0,0
120449606,120445211,40.15489426350734,116.26446346893633,99.4926,99.49649,0.0016586967,0.34181684,0.41166624,nan,2,2,0,0
120653564,120649222,40.154896419508034,116.26449445614857,99.48781,99.49178,0.0016586967,0.34193575,0.41167283,nan,2,2,0,0
120853931,120849688,40.154898498685284,116.26452489108036,99.4836,99.48609,0.0016586967,0.34234828,0.41178465,nan,2,2,0,0
121054325,121050025,40.154900492223454,116.26455536765974,99.47981,99.48072,0.0016586967,0.3423947,0.41175553,nan,2,2,0,0
121253566,121249539,40.15490235567026,116.26458573003876,99.47666,99.47706,0.0016586967,0.34239572,0.41171968,nan,2,2,0,0
121453999,121450011,40.15490407638722,116.26461622024026,99.4751,99.47572,0.0016586967,0.34240162,0.41168186,nan,2,2,0,0
121658549,121653992,40.154905745468106,116.26464725481337,99.47467,99.47488,0.0016586967,0.3424048,0.41164607,nan,2,2,0,0
121858432,121853427,40.15490741430305,116.26467765165033,99.47633,99.47679,0.0016586967,0.3423872,0.4115961,nan,2,2,0,0
122053706,122049616,40.154909071633675,116.26470752063047,99.47856,99.47973,0.0016586967,0.3420427,0.41143054,nan,2,2,0,0
122250084,122245666,40.154910717704716,116.26473737955652,99.48067,99.48194,0.0016586967,0.34148172,0.41120172,nan,2,2,0,0
122450436,122445101,40.15491240463181,116.26476774336378,99.482796,99.4848,0.0016586967,0.34136578,0.41112676,nan,2,2,0,0
122649719,122645521,40.15491411679068,116.26479827379127,99.49025,99.49393,0.0016586967,0.34414786,0.41165242,nan,2,2,0,0
122853755,122849669,40.15491592277042,116.2648293708683,99.495575,99.49914,0.0016586967,0.3413174,0.41143024,nan,2,2,0,0
123054591,123050095,40.15491780315402,116.26485986181645,99.49954,99.50266,0.0016586967,0.3410063,0.41128817,nan,2,2,0,0
123258770,123253136,40.15491977023504,116.26489070827081,99.50423,99.50591,0.0016586967,0.34139672,0.41139707,nan,2,2,0,0
123458007,123453407,40.15492185342717,116.2649211123442,99.50795,99.51002,0.0016586967,0.34170538,0.41147426,nan,2,2,0,0
123657890,123653017,40.15492406643352,116.26495140367956,99.512535,99.514946,0.0016586967,0.34197634,0.41153193,nan,2,2,0,0
123850261,123845630,40.15492629349317,116.26498063068568,99.51602,99.52004,0.0016586967,0.34216234,0.41156596,nan,2,2,0,0
124053650,124049851,40.15492869224253,116.26501166391719,99.521255,99.5257,0.0016586967,0.34256893,0.41166198,nan,2,2,0,0
124250496,124245886,40.15493107459201,116.2650414561458,99.52097,99.52681,0.0016586967,0.34195897,0.41140327,nan,2,2,0,0
124458307,124453394,40.15493371151822,116.26507298925517,99.51982,99.52462,0.0016586967,0.34236068,0.41149992,nan,2,2,0,0
124653894,124649915,40.15493645008895,116.26510279229812,99.52022,99.52503,0.0016586967,0.34213573,0.41137525,nan,2,2,0,0
124859167,124853982,40.15493955936758,116.26513369921501,99.51975,99.52448,0.0016586967,0.34226042,0.4113768,nan,2,2,0,0
125050237,125045860,40.15494276563693,116.26516270370372,99.51502,99.520676,0.0016586967,0.3420901,0.41167426,nan,2,2,0,0
125250019,125245689,40.15494626549089,116.2651928501221,99.5145,99.519966,0.0016586967,0.34218532,0.4116674,nan,2,2,0,0
125453517,125449166,40.154949990080205,116.26522351508886,99.513,99.51972,0.0016586967,0.34160808,0.41141745,nan,2,2,0,0
125658010,125653528,40.15495395782135,116.2652542411298,99.513275,99.51787,0.0016586967,0.3418348,0.41146025,nan,2,2,0,0
125853666,125849112,40.15495784934392,116.26528358396382,99.50743,99.512146,0.0016586967,0.3417197,0.41138265,nan,2,2,0,0
126058480,126053500,40.15496200287589,116.26531425832341,99.50633,99.5098,0.0016586967,0.3419215,0.41142243,nan,2,2,0,0
126250345,126245056,40.154965989384785,116.26534294907303,99.50134,99.5052,0.0016586967,0.34437257,0.41183895,nan,2,2,0,0
126454039,126449689,40.15497039677186,116.26537356960456,99.50047,99.50526,0.0016586967,0.34145764,0.41159,nan,2,2,0,0
126649711,126645123,40.154974814943195,116.26540280191145,99.501205,99.50689,0.0016586967,0.34143835,0.41115746,nan,2,2,0,0
126853754,126849629,40.1549795299746,116.26543341745744,99.50212,99.509544,0.0016586967,0.34175315,0.41123602,nan,2,2,0,0
127058033,127053509,40.15498432569392,116.26546391882695,99.50725,99.51431,0.0016586967,0.34264746,0.41151735,nan,2,2,0,0
127254458,127250036,40.154989143984906,116.2654932660978,99.51364,99.519196,0.0016586967,0.3420945,0.41169158,nan,2,2,0,0
127449845,127445260,40.15499422630801,116.265522344087,99.51759,99.52457,0.0016586967,0.341908,0.41159552,nan,2,2,0,0
127650198,127645246,40.154999726026254,116.26555200241171,99.524475,99.53171,0.0016586967,0.34173694,0.4114929,nan,2,2,0,0
127854015,127849638,40.15500574249125,116.26558222959298,99.530495,99.53751,0.0016586967,0.34197378,0.41153282,nan,2,2,0,0
128054268,128049218,40.15501188360192,116.26561165459313,99.53316,99.53959,0.0016586967,0.34158608,0.41135702,nan,2,2,0,0
128258167,128253443,40.155018358125815,116.26564164843023,99.53759,99.54442,0.0016586967,0.34188583,0.41142094,nan,2,2,0,0
128450600,128445940,40.155024609633855,116.26566981952148,99.538605,99.54382,0.0016586967,0.34149367,0.4112454,nan,2,2,0,0
128650244,128645670,40.155031204679695,116.26569901764631,99.53458,99.5388,0.0016586967,0.3421,0.41141114,nan,2,2,0,0
128849961,128845336,40.15503799293398,116.265728183481,99.533325,99.53599,0.0016586967,0.3416324,0.4116025,nan,2,2,0,0
129053817,129049682,40.15504513984731,116.26575796627456,99.53024,99.53273,0.0016586967,0.34223542,0.4113757,nan,2,2,0,0
129253490,129249263,40.15505232989428,116.26578696914176,99.52675,99.53081,0.0016586967,0.3417464,0.41156778,nan,2,2,0,0
129453271,129449034,40.155059791649116,116.26581584708411,99.522644,99.5283,0.0016586967,0.3417139,0.4115189,nan,2,2,0,0
129654330,129650089,40.15506757257842,116.26584479975996,99.51995,99.523575,0.0016586967,0.3416616,0.41146055,nan,2,2,0,0
129853687,129849230,40.155075560192955,116.26587330073458,99.5141,99.51994,0.0016586967,0.34190953,0.41150925,nan,2,2,0,0
130058177,130053320,40.155083966298164,116.26590239354087,99.51424,99.52008,0.0016586967,0.34217182,0.41156027,nan,2,2,0,0
130257395,130252949,40.15509239165651,116.26593077320885,99.51332,99.52099,0.0016586967,0.34208676,0.4114849,nan,2,2,0,0
130457824,130453420,40.155101071969554,116.26595920390432,99.51242,99.52002,0.0016586967,0.34260574,0.41162276,nan,2,2,0,0
130655642,130649952,40.15510976000737,116.26598695162336,99.51596,99.52475,0.0016586967,0.3420366,0.41137633,nan,2,2,0,0
130849958,130845417,40.15511862123643,116.2660144221544,99.516716,99.5264,0.0016586967,0.3421626,0.41178012,nan,2,2,0,0
131049823,131045305,40.155127940483865,116.26604238469714,99.51639,99.52476,0.0016586967,0.3422462,0.41176137,nan,2,2,0,0
131250076,131245708,40.155137506458516,116.26607031352272,99.51277,99.52076,0.0016586967,0.34235886,0.4117475,nan,2,2,0,0
131458418,131453766,40.155147646785544,116.26609920406199,99.50792,99.51432,0.0016586967,0.3424187,0.41172683,nan,2,2,0,0
131654927,131649966,40.15515739147295,116.26612629625049,99.503876,99.50913,0.0016586967,0.34188223,0.41150016,nan,2,2,0,0
131849743,131845401,40.15516728547176,116.26615315721217,99.4996,99.50591,0.0016586967,0.34500366,0.41171917,nan,2,2,0,0
132049566,132045027,40.1551775397867,116.26618047211241,99.500244,99.5066,0.0016586967,0.3412839,0.41122335,nan,2,2,0,0
132257654,132252952,40.155188492504614,116.26620875879769,99.50288,99.50954,0.0016586967,0.34193078,0.41141868,nan,2,2,0,0
132449958,132445470,40.155198940114396,116.26623474726709,99.504425,99.51054,0.0016586967,0.34179595,0.41134614,nan,2,2,0,0
132655070,132649996,40.155210335297184,116.26626215354,99.505135,99.51067,0.0016586967,0.3416726,0.41127452,nan,2,2,0,0
132849629,132845282,40.15522152391689,116.26628809040805,99.504326,99.50939,0.0016586967,0.34453234,0.4118223,nan,2,2,0,0
133049311,133044968,40.1552332767761,116.26631439434212,99.50471,99.508896,0.0016586967,0.34453204,0.41178358,nan,2,2,0,0
133249718,133245375,40.15524534333267,116.2663406200427,99.5027,99.50595,0.0016586967,0.34193736,0.41165733,nan,2,2,0,0
133458610,133454400,40.155258106367285,116.26636785846787,99.4984,99.50008,0.0016586967,0.34246644,0.41180128,nan,2,2,0,0
133658371,133652954,40.155270379609114,116.26639359298021,99.497925,99.50021,0.0016586967,0.3422254,0.4116692,nan,2,2,0,0
133854356,133850061,40.15528276265519,116.26641892174551,99.496025,99.498024,0.0016586967,0.3417471,0.41145438,nan,2,2,0,0
134058104,134054370,40.155295891879824,116.26644491851786,99.49594,99.4971,0.0016586967,0.3422768,0.41159815,nan,2,2,0,0
134250177,134245738,40.15530849868477,116.26646898405623,99.4942,99.49538,0.0016586967,0.3424101,0.4116016,nan,2,2,0,0
134449787,134445263,40.155321944702834,116.26649378081345,99.4935,99.49459,0.0016586967,0.3418448,0.4113604,nan,2,2,0,0
134650244,134645636,40.155335745036815,116.26651851298908,99.492615,99.49167,0.0016586967,0.34203088,0.41138273,nan,2,2,0,0
134853801,134849114,40.15534990871792,116.26654352961901,99.48843,99.48785,0.0016586967,0.34157136,0.4115752,nan,2,2,0,0
135058834,135053817,40.15536437923075,116.26656853696191,99.484764,99.48314,0.0016586967,0.34188193,0.41125464,nan,2,2,0,0
135254610,135249916,40.155378367619086,116.2665923089881,99.4855,99.48517,0.0016586967,0.34123382,0.41138032,nan,2,2,0,0
135453699,135449171,40.155392672425215,116.26661634391755,99.48832,99.48754,0.0016586967,0.3412834,0.4113607,nan,2,2,0,0
135649920,135645386,40.15540689191169,116.2666398473943,99.49161,99.490456,0.0016586967,0.3416806,0.4114681,nan,2,2,0,0
135858386,135853602,40.15542217726554,116.26666463799312,99.492676,99.49273,0.0016586967,0.34200376,0.4115467,nan,2,2,0,0
136053796,136049597,40.155436752734595,116.26668775228306,99.49362,99.4943,0.0016586967,0.34163967,0.41138682,nan,2,2,0,0
136250371,136245048,40.155451434977856,116.26671063677948,99.49283,99.49232,0.0016586967,0.34162968,0.41135144,nan,2,2,0,0
136449898,136445340,40.15546661970242,116.26673397595789,99.489426,99.48886,0.0016586967,0.34190124,0.41141123,nan,2,2,0,0
136654772,136650069,40.15548225586617,116.26675769009464,99.489296,99.48831,0.0016586967,0.34475443,0.41195682,nan,2,2,0,0
136849735,136845229,40.1554973360906,116.26678003675687,99.4894,99.48606,0.0016586967,0.3414823,0.41159114,nan,2,2,0,0
137049856,137045444,40.15551301184299,116.26680273613256,99.48634,99.4845,0.0016586967,0.34181648,0.41167486,nan,2,2,0,0
137253375,137249269,40.15552921672363,116.26682555624187,99.48396,99.47951,0.0016586967,0.34179565,0.41162062,nan,2,2,0,0
137449872,137445567,40.15554502647108,116.26684731555896,99.4789,99.47353,0.0016586967,0.34213015,0.4116993,nan,2,2,0,0
137649568,137644947,40.15556125090013,116.26686920636739,99.47503,99.470375,0.0016586967,0.34201896,0.41160956,nan,2,2,0,0
137849961,137845378,40.155577723161564,116.26689100457365,99.47403,99.46901,0.0016586967,0.34223813,0.411639,nan,2,2,0,0
138050109,138045574,40.15559427446869,116.26691270081926,99.47322,99.46691,0.0016586967,0.34208006,0.41153502,nan,2,2,0,0
138254039,138249334,40.15561119571058,116.26693467434193,99.47279,99.467545,0.0016586967,0.34492612,0.41164416,nan,2,2,0,0
138457843,138453344,40.15562813946064,116.26695655307871,99.47394,99.46925,0.0016586967,0.34166238,0.41130218,nan,2,2,0,0
138658215,138654310,40.15564488618146,116.26697803392807,99.47395,99.46888,0.0016586967,0.34206426,0.41140094,nan,2,2,0,0
138858410,138854302,40.15566155880598,116.26699939268742,99.4769,99.47212,0.0016586967,0.3420116,0.41134676,nan,2,2,0,0
139058708,139053392,40.155678183408014,116.26702061786918,99.47767,99.47283,0.0016586967,0.34198433,0.41129747,nan,2,2,0,0
139249502,139245198,40.15569421470437,116.26704105298259,99.479355,99.47574,0.0016586967,0.3419929,0.41165578,nan,2,2,0,0
139449503,139445027,40.15571100533995,116.26706230118879,99.48068,99.47868,0.0016586967,0.34159166,0.41147098,nan,2,2,0,0
139658188,139653474,40.15572858247937,116.26708443431086,99.4834,99.48036,0.0016586967,0.34255072,0.41176876,nan,2,2,0,0
139853442,139849231,40.1557450904639,116.26710515320048,99.48535,99.48171,0.0016586967,0.3420495,0.41155627,nan,2,2,0,0
140053855,140049598,40.15576207294396,116.2671262133006,99.48381,99.479996,0.0016586967,0.34199408,0.4114951,nan,2,2,0,0
140250384,140245384,40.15577874259348,116.26714667009591,99.4845,99.478745,0.0016586967,0.34190252,0.41142777,nan,2,2,0,0
140449622,140444839,40.15579569709068,116.26716749393104,99.484955,99.4803,0.0016586967,0.34149984,0.41124323,nan,2,2,0,0
140658054,140653790,40.1558134883072,116.26718930898214,99.48736,99.48244,0.0016586967,0.34179902,0.4117074,nan,2,2,0,0
140857706,140853178,40.15583053721243,116.26721007683315,99.489685,99.48477,0.0016586967,0.3420703,0.41176942,nan,2,2,0,0
141049521,141045064,40.155846956591766,116.26722998063468,99.49106,99.48552,0.0016586967,0.34196958,0.41168675,nan,2,2,0,0
141253928,141249583,40.155864539268066,116.2672511141343,99.490295,99.484795,0.0016586967,0.34252572,0.41143158,nan,2,2,0,0
141449850,141445168,40.15588138401682,116.26727130385092,99.48898,99.48312,0.0016586967,0.34198752,0.41161504,nan,2,2,0,0
141649479,141645165,40.15589863820764,116.26729193747116,99.48742,99.481064,0.0016586967,0.34219486,0.41164315,nan,2,2,0,0
141854048,141849342,40.15591618546392,116.26731312773457,99.488495,99.48233,0.0016586967,0.34263805,0.4117607,nan,2,2,0,0
142057946,142053154,40.155933599875446,116.26733439914537,99.48882,99.48268,0.0016586967,0.34267762,0.411736,nan,2,2,0,0
142254084,142249735,40.15595033534414,116.26735501046214,99.48775,99.48346,0.0016586967,0.34298947,0.41180748,nan,2,2,0,0
142454033,142449126,40.15596727524893,116.26737594787299,99.49,99.486015,0.0016586967,0.34252346,0.41160822,nan,2,2,0,0
142653925,142649655,40.15598428512278,116.26739703612276,99.491745,99.486084,0.0016586967,0.34252512,0.41157597,nan,2,2,0,0
142857679,142853440,40.15600143437554,116.2674185976861,99.492744,99.48721,0.0016586967,0.34248015,0.41152856,nan,2,2,0,0
143053888,143049836,40.156017877239194,116.26743951782287,99.491135,99.48722,0.0016586967,0.34187442,0.41168427,nan,2,2,0,0
143249779,143245399,40.15603416860148,116.26746044513044,99.49089,99.48551,0.0016586967,0.34225175,0.41138247,nan,2,2,0,0
143457296,143452886,40.15605145693452,116.26748267537548,99.48908,99.48482,0.0016586967,0.34195533,0.41164488,nan,2,2,0,0
143653609,143649389,40.15606778834258,116.26750380164668,99.488396,99.48601,0.0016586967,0.3420554,0.41165137,nan,2,2,0,0
143854533,143848804,40.15608437605942,116.26752522960203,99.48732,99.48596,0.0016586967,0.3415021,0.41141325,nan,2,2,0,0
144057814,144053393,40.15610136113139,116.26754721852684,99.48729,99.486244,0.0016586967,0.34167582,0.4114453,nan,2,2,0,0
144257708,144253131,40.156117904921274,116.26756872837035,99.487274,99.485535,0.0016586967,0.34156275,0.41137078,nan,2,2,0,0
144453796,144448987,40.15613408399272,116.26758986184325,99.48566,99.48339,0.0016586967,0.3414881,0.41131166,nan,2,2,0,0
144653609,144649670,40.156150635989654,116.26761159578277,99.48529,99.48156,0.0016586967,0.34235945,0.41157985,nan,2,2,0,0
144858259,144852897,40.15616736497872,116.26763362852358,99.48371,99.47798,0.0016586967,0.34236366,0.41154522,nan,2,2,0,0
145053966,145049557,40.15618353057786,116.26765491069001,99.48133,99.47581,0.0016586967,0.34206757,0.41140735,nan,2,2,0,0
145258018,145253215,40.156200323781846,116.26767692478847,99.47847,99.47285,0.0016586967,0.3421006,0.41178653,nan,2,2,0,0
145450099,145445614,40.15621622209825,116.26769772144296,99.478485,99.4723,0.0016586967,0.34218836,0.41137972,nan,2,2,0,0
145649419,145644943,40.15623270547952,116.26771924930553,99.47823,99.47362,0.0016586967,0.3448673,0.41186014,nan,2,2,0,0
145849412,145845109,40.156249286281785,116.26774083895666,99.480995,99.475716,0.0016586967,0.34463826,0.4117508,nan,2,2,0,0
146053846,146049548,40.156266220535386,116.26776287681824,99.48087,99.47562,0.0016586967,0.3422204,0.4116964,nan,2,2,0,0
146250175,146245388,40.15628247093665,116.26778391774764,99.47974,99.474335,0.0016586967,0.34195668,0.4115757,nan,2,2,0,0
146453786,146449617,40.156299460359186,116.26780580912842,99.482956,99.47707,0.0016586967,0.3423419,0.41167492,nan,2,2,0,0
146649930,146645392,40.15631575879033,116.26782674738452,99.48219,99.47468,0.0016586967,0.34235403,0.4116492,nan,2,2,0,0
146849831,146845460,40.15633244827286,116.26784813026593,99.481415,99.4749,0.0016586967,0.3420161,0.41149476,nan,2,2,0,0
147053350,147049044,40.15634944564978,116.26786993477928,99.48273,99.475784,0.0016586967,0.341771,0.4113729,nan,2,2,0,0
147254336,147249487,40.156366114522875,116.26789152451721,99.48312,99.47608,0.0016586967,0.3419246,0.41139862,nan,2,2,0,0
147453490,147449084,40.156382511949325,116.26791323631805,99.484055,99.476814,0.0016586967,0.34140727,0.41119188,nan,2,2,0,0
147654582,147649375,40.15639878667104,116.26793519301377,99.48329,99.476135,0.0016586967,0.34161818,0.4116342,nan,2,2,0,0
147854390,147849377,40.15641493623057,116.26795724665712,99.47943,99.47202,0.0016586967,0.34119606,0.41144505,nan,2,2,0,0
148058102,148052877,40.1564313470252,116.26797974419033,99.473015,99.46375,0.0016586967,0.3417721,0.41162285,nan,2,2,0,0
148250229,148245284,40.15644687637777,116.2680010889104,99.46484,99.455154,0.0016586967,0.34456328,0.41173792,nan,2,2,0,0
148449171,148444803,40.15646298420182,116.26802321655238,99.46123,99.4508,0.0016586967,0.3437884,0.41145235,nan,2,2,0,0
148653778,148649457,40.15647952835694,116.26804582976578,99.45795,99.44788,0.0016586967,0.3414187,0.41138893,nan,2,2,0,0
148854265,148849507,40.15649572180783,116.2680678813136,99.45749,99.447945,0.0016586967,0.3414647,0.41136494,nan,2,2,0,0
149049994,149045172,40.156511588151766,116.2680894387085,99.45856,99.4492,0.0016586967,0.34150618,0.41134733,nan,2,2,0,0
149249368,149244889,40.1565277623845,116.26811147088316,99.45806,99.45017,0.0016586967,0.341187,0.4111903,nan,2,2,0,0
149449597,149444818,40.15654393496015,116.26813357416889,99.458435,99.450485,0.0016586967,0.34128433,0.4111816,nan,2,2,0,0
149654699,149650101,40.15656051531147,116.26815630019748,99.45942,99.44975,0.0016586967,0.34167472,0.4112769,nan,2,2,0,0
149853543,149849484,40.15657660389943,116.26817837045515,99.459335,99.449455,0.0016586967,0.3419866,0.41174778,nan,2,2,0,0
150057441,150052819,40.15659301519955,116.26820087527737,99.45675,99.4488,0.0016586967,0.34157473,0.41155264,nan,2,2,0,0
150257773,150253640,40.15660917292706,116.26822310069586,99.45932,99.45221,0.0016586967,0.34194744,0.41164,nan,2,2,0,0
150449540,150444956,40.15662456722312,116.2682442401044,99.461044,99.45463,0.0016586967,0.34157073,0.41146195,nan,2,2,0,0
150653815,150649543,40.15664099825792,116.26826689219064,99.46225,99.45645,0.0016586967,0.3421874,0.41163355,nan,2,2,0,0
150849984,150845373,40.15665674049714,116.26828862848902,99.46202,99.4556,0.0016586967,0.34172332,0.41142538,nan,2,2,0,0
151049971,151045439,40.15667284551638,116.26831081874984,99.459656,99.454544,0.0016586967,0.34137392,0.411267,nan,2,2,0,0
151253808,151249631,40.156689247993896,116.26833348666418,99.45896,99.45589,0.0016586967,0.34113485,0.41114637,nan,2,2,0,0
151449505,151444909,40.1567049847417,116.26835511023646,99.462296,99.45956,0.0016586967,0.341259,0.41115588,nan,2,2,0,0
151649646,151645139,40.156721207225246,116.26837716768125,99.466095,99.46516,0.0016586967,0.3419913,0.41136885,nan,2,2,0,0
151853771,151849081,40.15673774583589,116.26839963168203,99.471924,99.4725,0.0016586967,0.34188995,0.41168973,nan,2,2,0,0
152057418,152053259,40.15675431957368,116.26842207630793,99.47661,99.476944,0.0016586967,0.3421645,0.4117447,nan,2,2,0,0
152253908,152248835,40.15677023636284,116.26844350172804,99.482056,99.48227,0.0016586967,0.34209442,0.41167036,nan,2,2,0,0
152449782,152445211,40.156786228890674,116.26846499252542,99.48494,99.48545,0.0016586967,0.34195378,0.41158092,nan,2,2,0,0
152654060,152649805,40.15680290306706,116.26848741421671,99.48625,99.48733,0.0016586967,0.34154168,0.4113938,nan,2,2,0,0
152854511,152849771,40.15681918591373,116.26850937262364,99.48549,99.48694,0.0016586967,0.34183976,0.41146633,nan,2,2,0,0
153049534,153045215,40.156835071945466,116.2685308289622,99.484604,99.48652,0.0016586967,0.34266853,0.41172263,nan,2,2,0,0
153249829,153245442,40.156851319103204,116.26855281036657,99.4846,99.487144,0.0016586967,0.34237987,0.41158262,nan,2,2,0,0
153449744,153445158,40.15686748063017,116.26857476806771,99.48639,99.489265,0.0016586967,0.34216064,0.41146445,nan,2,2,0,0
153657365,153653861,40.15688442424831,116.26859771629108,99.48541,99.48919,0.0016586967,0.34228328,0.41147333,nan,2,2,0,0
153852978,153848869,40.15690025812525,116.26861909366141,99.48683,99.49091,0.0016586967,0.34207767,0.41136643,nan,2,2,0,0
154054041,154049205,40.15691654204697,116.26864102914934,99.49036,99.49421,0.0016586967,0.3424964,0.41147533,nan,2,2,0,0
154253598,154249878,40.15693284516992,116.2686630321611,99.49067,99.496254,0.0016586967,0.34188843,0.41162854,nan,2,2,0,0
154453516,154448781,40.156948996806015,116.2686848793113,99.49221,99.49874,0.0016586967,0.34169433,0.411515,nan,2,2,0,0
154657778,154653535,40.15696559188565,116.26870743540024,99.49199,99.49845,0.0016586967,0.34190357,0.4115569,nan,2,2,0,0
154853635,154849564,40.15698150476733,116.26872899669213,99.48828,99.49456,0.0016586967,0.3421136,0.41159755,nan,2,2,0,0
155053630,155049030,40.15699767449483,116.26875095160581,99.48306,99.48895,0.0016586967,0.34163773,0.41139844,nan,2,2,0,0
155257418,155252877,40.15701417845305,116.26877340860163,99.47987,99.48591,0.0016586967,0.34215775,0.411548,nan,2,2,0,0
155457677,155453201,40.15703042391373,116.26879543824089,99.47836,99.48498,0.0016586967,0.34199446,0.41145167,nan,2,2,0,0
155658045,155653328,40.15704668913447,116.26881742767486,99.47958,99.48538,0.0016586967,0.3422599,0.41151252,nan,2,2,0,0
155849649,155845289,40.15706230947477,116.26883851855318,99.48012,99.48815,0.0016586967,0.34174007,0.4116978,nan,2,2,0,0
156049094,156044628,40.157078531881716,116.26886041463547,99.48363,99.491806,0.0016586967,0.34451622,0.4118158,nan,2,2,0,0
156253530,156249150,40.15709514340312,116.26888287744748,99.48395,99.49111,0.0016586967,0.34185955,0.41166356,nan,2,2,0,0
156453873,156449730,40.15711146623693,116.26890492151558,99.48154,99.48952,0.0016586967,0.34174445,0.4115767,nan,2,2,0,0
156649574,156645071,40.15712733462786,116.26892640891865,99.47929,99.48754,0.0016586967,0.34487966,0.41180384,nan,2,2,0,0
156853880,156849565,40.15714386709106,116.2689489090964,99.47905,99.487885,0.0016586967,0.34148923,0.41140634,nan,2,2,0,0
157053294,157049741,40.157160031276646,116.26897098405296,99.48109,99.489784,0.0016586967,0.34145012,0.4113523,nan,2,2,0,0
157249766,157245186,40.1571757898674,116.26899255047068,99.4804,99.489624,0.0016586967,0.3446501,0.4116101,nan,2,2,0,0
157453659,157448998,40.157192173562656,116.26901507794791,99.47979,99.48929,0.0016586967,0.34107676,0.41114813,nan,2,2,0,0
157649619,157644680,40.15720792060709,116.26903676216855,99.47985,99.48741,0.0016586967,0.34117508,0.41115174,nan,2,2,0,0
157854096,157849137,40.15722438551824,116.2690594268561,99.47827,99.48486,0.0016586967,0.3444719,0.41185454,nan,2,2,0,0
158057607,158052952,40.15724082024345,116.26908200680236,99.47451,99.480194,0.0016586967,0.34101528,0.4114104,nan,2,2,0,0
158257929,158253945,40.15725708045741,116.26910412636612,99.47121,99.47744,0.0016586967,0.34122536,0.41144955,nan,2,2,0,0
158453619,158449136,40.15727301744265,116.26912542283243,99.47049,99.475555,0.0016586967,0.3413914,0.4114711,nan,2,2,0,0
158649031,158644721,40.15728912404599,116.26914660298854,99.46786,99.47248,0.0016586967,0.34152347,0.41147858,nan,2,2,0,0
158857745,158853186,40.157306414507325,116.26916903445148,99.464645,99.47035,0.0016586967,0.34191862,0.41158047,nan,2,2,0,0
159058102,159053549,40.15732315121918,116.26919045748355,99.46431,99.47075,0.0016586967,0.34129307,0.41131982,nan,2,2,0,0
