timestamp,timestamp_sample,lat,lon,alt,alt_ellipsoid,delta_alt,eph,epv,terrain_alt,lat_lon_reset_counter,alt_reset_counter,terrain_alt_valid,dead_reckoning
32182547,32179031,40.15177891711292,116.25797190034224,49.82917,49.822002,0.0035839826,0.76811457,0.84999996,nan,2,2,0,0
32190303,32186058,40.151778916478484,116.25797190016922,49.828873,49.821705,0.0035839826,0.7681271,0.8500127,nan,2,2,0,0
32374904,32369746,40.15177890874272,116.2579719295594,49.82168,49.816425,0.0035839826,0.5848079,0.47485828,nan,2,2,0,0
32582546,32578382,40.15177890093889,116.25797187091189,49.830154,49.82621,0.0035839826,0.46678653,0.43675327,nan,2,2,0,0
32782213,32778802,40.151778770134,116.25797173166903,49.835087,49.833633,0.0035839826,0.4204439,0.42568368,nan,2,2,0,0
32974901,32970395,40.151778720766245,116.25797159585737,49.84009,49.840122,0.0035839826,0.39579716,0.42082328,nan,2,2,0,0
33174383,33170096,40.15177875145087,116.25797158230489,49.845013,49.844585,0.0035839826,0.3809122,0.41839564,nan,2,2,0,0
33379280,33373757,40.15177874306352,116.25797161670351,49.844845,49.845314,0.0035839826,0.37072456,0.41762617,nan,2,2,0,0
33583444,33578349,40.151778733603855,116.25797165332047,49.844894,49.844273,0.0035839826,0.36412314,0.4160061,nan,2,2,0,0
33781971,33778096,40.15177876305553,116.25797164382496,49.844063,49.84471,0.0035839826,0.35861164,0.41569772,nan,2,2,0,0
33974564,33970381,40.151778809491375,116.2579716170249,49.845913,49.847347,0.0035839826,0.35476798,0.41502625,nan,2,2,0,0
34182005,34178272,40.15177879581097,116.25797160895553,49.8467,49.847805,0.0035839826,0.3518483,0.41447142,nan,2,2,0,0
34383004,34378255,40.15177880980258,116.25797160900127,49.84471,49.844894,0.0035839826,0.35027888,0.41433045,nan,2,2,0,0
34574009,34569762,40.15177880517464,116.25797157559866,49.84353,49.844566,0.0035839826,0.3482213,0.41369408,nan,2,2,0,0
34774412,34770223,40.15177877931376,116.25797154666415,49.842335,49.845955,0.0035839826,0.34720984,0.4134216,nan,2,2,0,0
34982486,34978037,40.15177877300531,116.25797154801012,49.84494,49.848022,0.0035839826,0.345887,0.4128989,nan,2,2,0,0
35178662,35174784,40.15177878033759,116.25797154692822,49.844196,49.84835,0.0035839826,0.3455674,0.41274983,nan,2,2,0,0
35383370,35378993,40.151778769380066,116.25797155721594,49.845356,49.850636,0.0035839826,0.34507772,0.41294602,nan,2,2,0,0
35578661,35574425,40.15177874040572,116.2579715776381,49.844757,49.850555,0.0035839826,0.34479183,0.4122207,nan,2,2,0,0
35782895,35778502,40.151778744203924,116.25797163043092,49.846172,49.854134,0.0035839826,0.3446842,0.41203085,nan,2,2,0,0
35978565,35974104,40.15177875883502,116.25797166760822,49.849,49.857994,0.0035839826,0.3442608,0.4121779,nan,2,2,0,0
36183257,36178389,40.151778750575666,116.25797168090415,49.852177,49.861206,0.0035839826,0.3414004,0.41141638,nan,2,2,0,0
36382746,36382004,40.15177875199201,116.25797166489703,49.853844,49.862537,0.0035839826,0.3447831,0.41202182,nan,2,2,0,0
36578832,36573790,40.151778755884735,116.25797165922361,49.856163,49.8649,0.0035839826,0.34486774,0.41190767,nan,2,2,0,0
36782235,36778096,40.1517787704006,116.25797164510439,49.85593,49.863865,0.0035839826,0.34643734,0.4122454,nan,2,2,0,0
36981922,36978138,40.15177876599035,116.25797163533954,49.85595,49.865208,0.0035839826,0.34642103,0.412125,nan,2,2,0,0
37174575,37170249,40.15177880318988,116.25797161001513,49.85646,49.86556,0.0035839826,0.3460351,0.41191667,nan,2,2,0,0
37382987,37381648,40.151778858312134,116.25797156968308,49.856457,49.865574,0.0035839826,0.34276903,0.41162714,nan,2,2,0,0
37578846,37574371,40.15177887641196,116.25797158326252,49.856495,49.86644,0.0035839826,0.34602213,0.41176352,nan,2,2,0,0
37786164,37782277,40.151778885836315,116.25797161669051,49.85641,49.867535,0.0035839826,0.34643456,0.41183475,nan,2,2,0,0
37974479,37970322,40.151778863154235,116.25797165416253,49.856205,49.866238,0.0035839826,0.3459784,0.41208127,nan,2,2,0,0
38174447,38170252,40.15177882687126,116.25797168160949,49.854416,49.86395,0.0035839826,0.34595087,0.41202763,nan,2,2,0,0
38373903,38369664,40.1517788115904,116.25797170605598,49.852787,49.86456,0.0035839826,0.3451251,0.41173849,nan,2,2,0,0
38578356,38573932,40.15177880072399,116.25797171393668,49.85299,49.863934,0.0035839826,0.34522626,0.411742,nan,2,2,0,0
38778719,38774399,40.15177880206993,116.25797170780328,49.853645,49.864796,0.0035839826,0.34464577,0.4115335,nan,2,2,0,0
38975360,38969871,40.15177876556924,116.2579717207003,49.855694,49.86874,0.0035839826,0.34456542,0.4114813,nan,2,2,0,0
39181937,39177798,40.15177871239345,116.25797174088852,49.85969,49.872208,0.0035839826,0.3448821,0.411562,nan,2,2,0,0
39378948,39374274,40.151778702293925,116.25797177170998,49.86157,49.874287,0.0035839826,0.34489202,0.4115394,nan,2,2,0,0
39582927,39579279,40.15177871738606,116.2579717750975,49.861725,49.874214,0.0035839826,0.3448442,0.41149396,nan,2,2,0,0
39778624,39775013,40.15177875192413,116.25797178066449,49.859367,49.871178,0.0035839826,0.34444347,0.41175157,nan,2,2,0,0
39978327,39974444,40.15177876049987,116.25797181088615,49.857677,49.86909,0.0035839826,0.34446183,0.41173148,nan,2,2,0,0
40178926,40174676,40.1517787554353,116.25797180643963,49.857967,49.867386,0.0035839826,0.34451905,0.41172323,nan,2,2,0,0
40382884,40378395,40.15177877379392,116.2579717560259,49.857605,49.8679,0.0035839826,0.3456635,0.4120555,nan,2,2,0,0
40581911,40577978,40.15177879737626,116.25797172233403,49.85733,49.86639,0.0035839826,0.34507963,0.41183525,nan,2,2,0,0
40782572,40778201,40.15177880403231,116.25797167106548,49.856167,49.86624,0.0035839826,0.345724,0.4119987,nan,2,2,0,0
40978815,40974297,40.15177877718493,116.25797168211027,49.854855,49.866074,0.0035839826,0.34545565,0.41187045,nan,2,2,0,0
41181901,41178127,40.151778760025394,116.25797168279455,49.854176,49.864716,0.0035839826,0.3452019,0.4117431,nan,2,2,0,0
41374381,41370029,40.15177873080043,116.2579716753602,49.8528,49.864014,0.0035839826,0.3453865,0.41175982,nan,2,2,0,0
41582943,41578552,40.15177874030685,116.2579716972878,49.85268,49.864567,0.0035839826,0.3423517,0.41153458,nan,2,2,0,0
41781923,41778334,40.15177876729782,116.25797170683796,49.854424,49.867413,0.0035839826,0.34546548,0.41212776,nan,2,2,0,0
41978167,41974025,40.151778788928674,116.25797168164425,49.85904,49.871544,0.0035839826,0.34514698,0.41197672,nan,2,2,0,0
42182891,42178371,40.15177878693551,116.25797169323059,49.86133,49.872314,0.0035839826,0.34560946,0.41208482,nan,2,2,0,0
42374931,42370150,40.15177876467598,116.25797171370951,49.86132,49.873295,0.0035839826,0.34489512,0.41181397,nan,2,2,0,0
42582852,42579143,40.15177874749285,116.25797170946042,49.864243,49.87587,0.0035839826,0.34464192,0.41170734,nan,2,2,0,0
42778375,42774150,40.151778766264876,116.25797170685864,49.866127,49.87794,0.0035839826,0.3441876,0.411527,nan,2,2,0,0
42982984,42978412,40.15177876306001,116.25797171157075,49.866962,49.87842,0.0035839826,0.34418988,0.41149402,nan,2,2,0,0
43178066,43174195,40.15177878121237,116.25797169995867,49.866474,49.876537,0.0035839826,0.34391662,0.41136885,nan,2,2,0,0
43381952,43377989,40.15177876989506,116.25797168317115,49.863823,49.87324,0.0035839826,0.34435868,0.4114715,nan,2,2,0,0
43586110,43581786,40.15177874755904,116.25797166174561,49.861515,49.86981,0.0035839826,0.34436885,0.41184327,nan,2,2,0,0
43778066,43774270,40.1517786973389,116.25797166243841,49.8594,49.868397,0.0035839826,0.34441593,0.41182268,nan,2,2,0,0
43982341,43978171,40.15177867244146,116.25797166599526,49.86072,49.871483,0.0035839826,0.3447538,0.4118959,nan,2,2,0,0
44174590,44170107,40.151778637174075,116.25797165864661,49.86301,49.87595,0.0035839826,0.34471518,0.41183788,nan,2,2,0,0
44381818,44377989,40.151778591782055,116.25797161065951,49.864677,49.87664,0.0035839826,0.34459653,0.41176018,nan,2,2,0,0
44574180,44569951,40.151778596919,116.25797155082651,49.86453,49.877655,0.0035839826,0.3449207,0.41182268,nan,2,2,0,0
44786305,44782056,40.1517786015636,116.2579715071807,49.86492,49.87764,0.0035839826,0.34546238,0.41195413,nan,2,2,0,0
44978495,44973578,40.15177861972791,116.25797148255153,49.86769,49.88016,0.0035839826,0.34482878,0.41170183,nan,2,2,0,0
45182510,45178178,40.1517786237987,116.25797143238601,49.8721,49.8848,0.0035839826,0.34465882,0.41160783,nan,2,2,0,0
45381844,45378010,40.1517786259558,116.25797138579827,49.875755,49.889793,0.0035839826,0.34426472,0.41144434,nan,2,2,0,0
45582470,45578191,40.15177862032025,116.25797135908883,49.87843,49.89081,0.0035839826,0.34499827,0.4116325,nan,2,2,0,0
45774004,45769577,40.15177862968036,116.2579713753273,49.879135,49.892822,0.0035839826,0.34413573,0.41172653,nan,2,2,0,0
45978495,45974098,40.151778664461254,116.2579714182337,49.88022,49.89333,0.0035839826,0.34446937,0.41179702,nan,2,2,0,0
46182613,46178558,40.15177869816931,116.25797142350542,49.882584,49.89404,0.0035839826,0.34151217,0.41115296,nan,2,2,0,0
46382822,46378936,40.15177872100377,116.25797144309293,49.88241,49.8945,0.0035839826,0.34438306,0.41168752,nan,2,2,0,0
46582960,46578132,40.15177877554527,116.25797149019344,49.883644,49.894436,0.0035839826,0.34471038,0.41175494,nan,2,2,0,0
46774592,46769594,40.15177882633756,116.25797152046478,49.88493,49.895527,0.0035839826,0.34425455,0.41156727,nan,2,2,0,0
46978339,46973788,40.15177883892098,116.25797152564856,49.886284,49.896957,0.0035839826,0.34458345,0.4116326,nan,2,2,0,0
47174416,47170089,40.151778852035214,116.25797154040299,49.88863,49.899982,0.0035839826,0.34451693,0.41157302,nan,2,2,0,0
47374489,47370181,40.15177886390624,116.2579715345007,49.891235,49.903236,0.0035839826,0.34513283,0.41172928,nan,2,2,0,0
47579248,47574320,40.151778876070104,116.25797153828714,49.891933,49.90284,0.0035839826,0.34483972,0.41202208,nan,2,2,0,0
47786020,47781722,40.15177889869588,116.25797154082186,49.890453,49.8988,0.0035839826,0.34499073,0.41161534,nan,2,2,0,0
47978380,47973804,40.151778904310625,116.25797154954218,49.886745,49.892635,0.0035839826,0.34448037,0.41183668,nan,2,2,0,0
48174579,48170051,40.151778869602815,116.25797152996431,49.883183,49.889,0.0035839826,0.3447574,0.41189182,nan,2,2,0,0
48381794,48377933,40.151778839793785,116.25797150061749,49.883083,49.88807,0.0035839826,0.34421864,0.41168806,nan,2,2,0,0
48582601,48578527,40.151778818938546,116.25797145862208,49.881752,49.885704,0.0035839826,0.3419364,0.41167477,nan,2,2,0,0
48778471,48773839,40.15177882362306,116.25797143138941,49.881466,49.88325,0.0035839826,0.34504563,0.41188014,nan,2,2,0,0
48986507,48982426,40.15177879480173,116.25797140960861,49.881355,49.882694,0.0035839826,0.34511983,0.4118667,nan,2,2,0,0
49182798,49178294,40.15177879073375,116.2579713825046,49.879692,49.881733,0.0035839826,0.3448752,0.4117505,nan,2,2,0,0
49374503,49369954,40.15177879698341,116.25797137216199,49.87902,49.880413,0.0035839826,0.3443036,0.41153184,nan,2,2,0,0
49581871,49577984,40.15177882603244,116.25797139566949,49.879402,49.881706,0.0035839826,0.34420508,0.4114679,nan,2,2,0,0
49773786,49769767,40.15177885746288,116.25797140678408,49.87994,49.8815,0.0035839826,0.34456658,0.41154045,nan,2,2,0,0
49981743,49977801,40.15177887543814,116.25797143803804,49.87984,49.881012,0.0035839826,0.34472197,0.411969,nan,2,2,0,0
50182787,50178556,40.151778889434524,116.25797144296655,49.880447,49.882362,0.0035839826,0.345272,0.41168782,nan,2,2,0,0
50382782,50377642,40.15177889931155,116.25797143369999,49.880825,49.883427,0.0035839826,0.34456405,0.411842,nan,2,2,0,0
50574403,50570129,40.1517788905843,116.25797141295573,49.88039,49.88119,0.0035839826,0.34470847,0.41185188,nan,2,2,0,0
50778040,50773636,40.15177890832267,116.25797143387159,49.87915,49.87796,0.0035839826,0.34412238,0.41162226,nan,2,2,0,0
50978768,50974075,40.15177892020753,116.25797143258899,49.876945,49.874756,0.0035839826,0.34444362,0.4116882,nan,2,2,0,0
51173770,51169530,40.15177893619355,116.25797144746886,49.874134,49.872032,0.0035839826,0.34399843,0.4115002,nan,2,2,0,0
51381767,51377811,40.15177892878217,116.2579714573989,49.871853,49.870903,0.0035839826,0.34393445,0.41144612,nan,2,2,0,0
51582029,51578585,40.151778914358324,116.25797148646376,49.870907,49.8682,0.0035839826,0.34395796,0.411823,nan,2,2,0,0
51786750,51782494,40.151778874836936,116.25797152622518,49.86786,49.865158,0.0035839826,0.3411393,0.41120106,nan,2,2,0,0
51978915,51974389,40.15177883062388,116.25797156687442,49.867462,49.865917,0.0035839826,0.34440342,0.4114802,nan,2,2,0,0
52182455,52178481,40.151778781344554,116.25797161430692,49.868797,49.868786,0.0035839826,0.3447071,0.4119539,nan,2,2,0,0
52378129,52373896,40.1517787389155,116.25797167129389,49.870068,49.869114,0.0035839826,0.34460142,0.41187137,nan,2,2,0,0
52582162,52578196,40.15177874500859,116.25797167770916,49.87093,49.870342,0.0035839826,0.3421623,0.41140354,nan,2,2,0,0
52778306,52773983,40.15177876721243,116.25797167150856,49.872116,49.86944,0.0035839826,0.35011506,0.4126689,nan,2,2,0,0
52981878,52977543,40.151778778924076,116.25797167667628,49.871998,49.869278,0.0035839826,0.34557605,0.4122271,nan,2,2,0,0
53182540,53178063,40.15177875214638,116.25797166568042,49.872986,49.869232,0.0035839826,0.3457984,0.41236433,nan,2,2,0,0
53381748,53377628,40.151778730612115,116.25797165705681,49.87325,49.868546,0.0035839826,0.34772196,0.41210932,nan,2,2,0,0
53578006,53573677,40.15177874487012,116.25797167101196,49.86978,49.863453,0.0035839826,0.34740245,0.4120466,nan,2,2,0,0
53782774,53778286,40.15177875323116,116.25797166401176,49.866337,49.86083,0.0035839826,0.34356734,0.41167223,nan,2,2,0,0
53982662,53977988,40.151778775601876,116.25797167155434,49.866127,49.861794,0.0035839826,0.34316432,0.41154772,nan,2,2,0,0
54177973,54174029,40.15177878483269,116.25797168156166,49.866974,49.86244,0.0035839826,0.34562212,0.41197273,nan,2,2,0,0
54378969,54374155,40.151778943180325,116.25797167677815,49.86816,49.86222,0.0035839826,0.34539932,0.41191244,nan,2,2,0,0
54581737,54577576,40.15178119831041,116.25797163058694,49.866665,49.86057,0.0035839826,0.3445614,0.4116401,nan,2,2,0,0
54777890,54773488,40.15178590371145,116.25797155301458,49.86811,49.863144,0.0035839826,0.34434253,0.41158876,nan,2,2,0,0
54981469,54973860,40.15179306219408,116.25797145265403,49.884567,49.878548,0.0035839826,0.3446028,0.41176423,nan,2,2,0,0
55182580,55177989,40.15180262607669,116.25797138132253,49.948757,49.94117,0.0035839826,0.3414685,0.4116731,nan,2,2,0,0
55382673,55378194,40.15181372202185,116.25797136396157,50.04527,50.036354,0.0035839826,0.34455493,0.41221943,nan,2,2,0,0
55574157,55569710,40.151824825810316,116.25797140702531,50.311077,50.30217,0.0035839826,0.34458977,0.4130751,nan,2,2,0,0
55778504,55774087,40.151836226147566,116.25797151181942,50.822712,50.81306,0.0035839826,0.34497854,0.41303137,nan,2,2,0,0
55973902,55969649,40.15184721136884,116.25797167571804,51.40514,51.396523,0.0035839826,0.34459075,0.41358855,nan,2,2,0,0
56185842,56181436,40.1518596993518,116.25797201107922,52.066372,52.05862,0.0035839826,0.34500378,0.4139942,nan,2,2,0,0
56381756,56377824,40.15187145903569,116.25797243963446,52.75519,52.747044,0.0035839826,0.34496647,0.4142327,nan,2,2,0,0
56574457,56570011,40.15188349199576,116.25797294065747,53.439526,53.432186,0.0035839826,0.34480938,0.41438138,nan,2,2,0,0
56778159,56773800,40.151896541745955,116.25797357689366,54.214153,54.207764,0.0035839826,0.3443512,0.41426125,nan,2,2,0,0
56982578,56977887,40.15190996788878,116.25797435112571,55.02299,55.017155,0.0035839826,0.34174824,0.41404808,nan,2,2,0,0
57174043,57169755,40.15192303959506,116.25797518315794,55.8082,55.80297,0.0035839826,0.34509394,0.41446567,nan,2,2,0,0
57382789,57378674,40.151937528524314,116.25797633567701,56.71251,56.708298,0.0035839826,0.34190214,0.41388276,nan,2,2,0,0
57582103,57578532,40.151951897346834,116.25797768211103,57.594,57.58864,0.0035839826,0.3460472,0.41437185,nan,2,2,0,0
57782494,57778130,40.15196655894012,116.2579792820711,58.512753,58.50882,0.0035839826,0.34672102,0.41436943,nan,2,2,0,0
57982401,57977898,40.151981627750295,116.25798106546075,59.454388,59.449326,0.0035839826,0.34627837,0.41455838,nan,2,2,0,0
58181883,58178125,40.151997069419494,116.25798313211911,60.4296,60.42584,0.0035839826,0.34683776,0.41452268,nan,2,2,0,0
58374406,58370078,40.152012185966896,116.25798540062404,61.393494,61.390232,0.0035839826,0.34677237,0.41427377,nan,2,2,0,0
58577964,58573558,40.15202846721637,116.25798819684724,62.438786,62.434013,0.0035839826,0.3465986,0.41400048,nan,2,2,0,0
58782782,58778124,40.1520451236233,116.25799136126446,63.51449,63.510036,0.0035839826,0.347042,0.41396615,nan,2,2,0,0
58982464,58977988,40.152061697986355,116.25799481737693,64.59434,64.59177,0.0035839826,0.3470123,0.41377276,nan,2,2,0,0
59181741,59177847,40.15207854451899,116.25799873577616,65.70333,65.70304,0.0035839826,0.34694105,0.41357538,nan,2,2,0,0
59382440,59378063,40.15209568848781,116.25800317661827,66.838295,66.83933,0.0035839826,0.34770563,0.41366398,nan,2,2,0,0
59577892,59573384,40.15211266476669,116.25800795942786,67.96199,67.96211,0.0035839826,0.34738055,0.41339076,nan,2,2,0,0
59782575,59778720,40.152130717922915,116.25801347786366,69.16672,69.1674,0.0035839826,0.34749752,0.4132706,nan,2,2,0,0
59978292,59973848,40.15214807321809,116.25801912603067,70.33232,70.332016,0.0035839826,0.3475029,0.4131259,nan,2,2,0,0
60181812,60177642,40.15216645249002,116.2580254585253,71.57085,71.571526,0.0035839826,0.34745005,0.4129737,nan,2,2,0,0
60373960,60369668,40.1521840303642,116.25803172227717,72.758865,72.76004,0.0035839826,0.34744027,0.41283068,nan,2,2,0,0
60578471,60573578,40.15220286666488,116.25803871252073,74.03954,74.04209,0.0035839826,0.34729892,0.4126691,nan,2,2,0,0
60782778,60778077,40.1522219085973,116.25804628738861,75.34966,75.35341,0.0035839826,0.34337205,0.41215527,nan,2,2,0,0
60974365,60970011,40.15223989203957,116.25805401577976,76.598564,76.602905,0.0035839826,0.3468133,0.41275564,nan,2,2,0,0
61181845,61177638,40.15225942300755,116.2580630430545,77.96666,77.96968,0.0035839826,0.346333,0.41247615,nan,2,2,0,0
61374207,61370028,40.15227760978163,116.25807202971797,79.2519,79.25554,0.0035839826,0.3456653,0.4121568,nan,2,2,0,0
61585938,61581446,40.15229769575564,116.25808259027791,80.6794,80.68272,0.0035839826,0.34550893,0.41199338,nan,2,2,0,0
61781913,61777675,40.152316469612266,116.25809285533607,82.0193,82.021996,0.0035839826,0.34548905,0.41188496,nan,2,2,0,0
61974177,61969851,40.152334942669306,116.25810328215047,83.3482,83.351036,0.0035839826,0.3454058,0.41176614,nan,2,2,0,0
62178036,62173700,40.152354675352065,116.2581147863156,84.77571,84.77839,0.0035839826,0.34528512,0.4116455,nan,2,2,0,0
62381666,62377808,40.15237460556942,116.25812665418405,86.22157,86.22652,0.0035839826,0.34489182,0.41144872,nan,2,2,0,0
62582767,62577910,40.15239433077061,116.25813847726458,87.65803,87.66369,0.0035839826,0.342538,0.41142482,nan,2,2,0,0
62774425,62769926,40.152413401473346,116.25815018282108,89.04933,89.05419,0.0035839826,0.34553748,0.41189992,nan,2,2,0,0
62982302,62977964,40.152434147422504,116.25816332047468,90.57272,90.57766,0.0035839826,0.34573725,0.41145954,nan,2,2,0,0
63186071,63181678,40.15245466379166,116.25817652689818,92.06368,92.06899,0.0035839826,0.34558675,0.41174418,nan,2,2,0,0
63382644,63378232,40.15247547313592,116.25818974695295,93.381325,93.38688,0.0035839826,0.34232926,0.4114332,nan,2,2,0,0
63573750,63569568,40.15249680565051,116.25820333046758,94.532684,94.53763,0.0035839826,0.34512624,0.41149113,nan,2,2,0,0
63782422,63777806,40.15252138114278,116.25821898763174,95.6102,95.614944,0.0035839826,0.34189868,0.41117856,nan,2,2,0,0
63977968,63973233,40.15254563758362,116.25823457990334,96.4893,96.492775,0.0035839826,0.344758,0.41125473,nan,2,2,0,0
64173895,64169566,40.15257116218987,116.25825131691971,97.24194,97.2459,0.0035839826,0.34470722,0.41154242,nan,2,2,0,0
64386120,64382146,40.152600104184245,116.25827074325056,97.91579,97.91818,0.0035839826,0.34555295,0.4112808,nan,2,2,0,0
64582484,64577956,40.15262805376126,116.25828967936694,98.43739,98.43843,0.0035839826,0.34252867,0.41110995,nan,2,2,0,0
64781596,64777736,40.15265753648498,116.25830967807558,98.86097,98.863014,0.0035839826,0.34609964,0.41163623,nan,2,2,0,0
64974249,64970118,40.152685911864936,116.25832917361984,99.16878,99.170784,0.0035839826,0.3457639,0.41146642,nan,2,2,0,0
65181706,65177654,40.15271608159793,116.25835035141144,99.41851,99.418526,0.0035839826,0.34542534,0.4112867,nan,2,2,0,0
65381827,65377433,40.15274455789671,116.25837094905877,99.59812,99.597496,0.0035839826,0.34549868,0.41122034,nan,2,2,0,0
65578010,65573436,40.15277202613327,116.2583913791188,99.721756,99.71963,0.0035839826,0.34482938,0.41095522,nan,2,2,0,0
65782797,65778202,40.15280025555243,116.25841290568182,99.817665,99.81564,0.0035839826,0.34458673,0.4108263,nan,2,2,0,0
65978107,65973705,40.1528268063593,116.25843350547743,99.88645,99.88406,0.0035839826,0.34434697,0.41071182,nan,2,2,0,0
66177813,66173507,40.15285357871193,116.25845441360201,99.93323,99.93011,0.0035839826,0.34385848,0.41054225,nan,2,2,0,0
66377947,66373767,40.15288008161868,116.25847525024014,99.95956,99.95564,0.0035839826,0.34452376,0.41071177,nan,2,2,0,0
66573803,66569520,40.152905620170635,116.25849570088043,99.979355,99.975395,0.0035839826,0.34372437,0.4108241,nan,2,2,0,0
66783148,66778003,40.15293225137038,116.25851771478256,100.005394,100.00176,0.0035839826,0.3409618,0.41036183,nan,2,2,0,0
66977895,66973524,40.152956658349446,116.25853882820999,100.021355,100.01823,0.0035839826,0.34432364,0.4110123,nan,2,2,0,0
67183042,67177939,40.15298157469929,116.25856127540114,100.02921,100.02619,0.0035839826,0.34143323,0.41054624,nan,2,2,0,0
67386215,67382775,40.1530059393957,116.25858414784008,100.02884,100.02714,0.0035839826,0.3452634,0.4113483,nan,2,2,0,0
67577943,67573327,40.153028001723314,116.25860581171196,100.03572,100.035,0.0035839826,0.34480995,0.41125056,nan,2,2,0,0
67782711,67777810,40.15305105686315,116.25862939900178,100.0364,100.03717,0.0035839826,0.3452084,0.4114171,nan,2,2,0,0
67978156,67973746,40.15307261363627,116.25865225943134,100.02558,100.02602,0.0035839826,0.345164,0.41145,nan,2,2,0,0
68174188,68169871,40.15309373704486,116.25867539070472,100.01378,100.014084,0.0035839826,0.3451253,0.4114737,nan,2,2,0,0
68374126,68369802,40.15311471553431,116.25869921101486,100.005714,100.00625,0.0035839826,0.34543645,0.41160223,nan,2,2,0,0
68573575,68569297,40.153135083912204,116.2587232980824,99.99723,99.999084,0.0035839826,0.34487575,0.41186738,nan,2,2,0,0
68774227,68769980,40.153155025510806,116.25874779248777,99.98959,99.99132,0.0035839826,0.3452093,0.41199833,nan,2,2,0,0
68981862,68977694,40.153175079072355,116.25877344466396,99.97237,99.97387,0.0035839826,0.34509575,0.41196957,nan,2,2,0,0
69174130,69169799,40.15319310609225,116.25879748161053,99.961716,99.96205,0.0035839826,0.3450424,0.41194206,nan,2,2,0,0
69373986,69369706,40.153211302159676,116.25882280828873,99.955826,99.956474,0.0035839826,0.34529486,0.41201764,nan,2,2,0,0
69578523,69574055,40.15322940778461,116.25884884011802,99.94425,99.94416,0.0035839826,0.34551626,0.41207394,nan,2,2,0,0
69778068,69773900,40.153246631594506,116.25887456071887,99.92709,99.92636,0.0035839826,0.34539434,0.41200987,nan,2,2,0,0
69986563,69981956,40.15326407014611,116.25890161252693,99.90622,99.90409,0.0035839826,0.34246027,0.41182634,nan,2,2,0,0
70185651,70181294,40.1532803078377,116.25892776708605,99.88962,99.887596,0.0035839826,0.3453632,0.41194186,nan,2,2,0,0
70374078,70369839,40.15329523338277,116.25895268542297,99.87747,99.87648,0.0035839826,0.3452308,0.41186222,nan,2,2,0,0
70581689,70577528,40.15331107542678,116.25898053781133,99.86867,99.868195,0.0035839826,0.34500542,0.4121826,nan,2,2,0,0
70782603,70777871,40.153325824331006,116.25900772644,99.86461,99.8646,0.0035839826,0.3452855,0.41179422,nan,2,2,0,0
70981780,70977897,40.15333997204142,116.25903515152412,99.852974,99.85168,0.0035839826,0.34513676,0.41213468,nan,2,2,0,0
71181574,71177501,40.15335359526723,116.25906278254263,99.83957,99.839554,0.0035839826,0.3449789,0.41203576,nan,2,2,0,0
71382897,71377645,40.15336690423784,116.25909062641074,99.82899,99.82881,0.0035839826,0.3448725,0.41195726,nan,2,2,0,0
71582037,71577507,40.15337987068615,116.25911852603092,99.81447,99.81504,0.0035839826,0.34440914,0.4117607,nan,2,2,0,0
71782710,71778124,40.15339263279764,116.25914654945052,99.80412,99.804184,0.0035839826,0.34512645,0.4119509,nan,2,2,0,0
71983776,71982994,40.153405403952476,116.25917522640381,99.79297,99.79187,0.0035839826,0.3450041,0.411861,nan,2,2,0,0
72178420,72173950,40.15341713371553,116.2592019912553,99.782364,99.77963,0.0035839826,0.34160236,0.41146934,nan,2,2,0,0
72381705,72377502,40.153429448857516,116.2592305356311,99.773285,99.770035,0.0035839826,0.3448912,0.41172868,nan,2,2,0,0
72582388,72577746,40.15344129180347,116.25925869848712,99.77161,99.766785,0.0035839826,0.34443814,0.41154212,nan,2,2,0,0
72782170,72777595,40.153452817202165,116.25928689824217,99.772606,99.76894,0.0035839826,0.34484962,0.41162878,nan,2,2,0,0
72982726,72978007,40.153464118366166,116.25931520707256,99.76918,99.76462,0.0035839826,0.34484634,0.4115801,nan,2,2,0,0
73185821,73181493,40.153475398659666,116.2593439669151,99.7659,99.761475,0.0035839826,0.3452114,0.41164333,nan,2,2,0,0
73382536,73377902,40.15348615063989,116.25937170014944,99.766914,99.762276,0.0035839826,0.34175137,0.4112615,nan,2,2,0,0
73578763,73574106,40.15349683619684,116.25939939191758,99.76648,99.76221,0.0035839826,0.34506488,0.41191941,nan,2,2,0,0
73782405,73777869,40.15350795811177,116.25942810447587,99.77076,99.7646,0.0035839826,0.34561712,0.4120418,nan,2,2,0,0
73973949,73969633,40.15351851494751,116.25945502495689,99.76729,99.76152,0.0035839826,0.345008,0.41179898,nan,2,2,0,0
74173830,74169609,40.15352962491967,116.25948299944588,99.763016,99.75586,0.0035839826,0.3448215,0.41168565,nan,2,2,0,0
74386283,74382095,40.153541391212805,116.25951265588625,99.754395,99.746475,0.0035839826,0.34197104,0.41149384,nan,2,2,0,0
74573851,74569582,40.15355179064156,116.25953880966587,99.750725,99.74339,0.0035839826,0.3452114,0.41170737,nan,2,2,0,0
74777657,74773200,40.15356305551605,116.25956716229649,99.74658,99.73854,0.0035839826,0.34531227,0.41169903,nan,2,2,0,0
74978011,74973637,40.153574171638795,116.25959496428463,99.74104,99.73295,0.0035839826,0.3450099,0.4119869,nan,2,2,0,0
75173646,75169218,40.15358504268079,116.25962200520688,99.73658,99.726814,0.0035839826,0.34410748,0.4116568,nan,2,2,0,0
75382032,75377747,40.15359667899945,116.25965071856983,99.72707,99.71622,0.0035839826,0.34445718,0.41173595,nan,2,2,0,0
75578164,75574075,40.153607650616294,116.25967765968835,99.71848,99.708206,0.0035839826,0.3437396,0.41147476,nan,2,2,0,0
75778426,75773463,40.153618802124164,116.25970496851778,99.712296,99.70094,0.0035839826,0.34457287,0.41171417,nan,2,2,0,0
75982565,75977514,40.15363023053706,116.2597329233478,99.71068,99.69877,0.0035839826,0.34156746,0.41146827,nan,2,2,0,0
76173519,76169281,40.153640929477156,116.25975924381629,99.705086,99.692764,0.0035839826,0.34448487,0.41161934,nan,2,2,0,0
76381725,76377344,40.15365247780281,116.25978779815163,99.69973,99.68694,0.0035839826,0.34476584,0.41168463,nan,2,2,0,0
76573809,76569520,40.15366311484209,116.25981409673183,99.68831,99.675186,0.0035839826,0.3446351,0.41161585,nan,2,2,0,0
76782708,76777984,40.153674545689164,116.2598426507235,99.679825,99.66464,0.0035839826,0.3444944,0.4115449,nan,2,2,0,0
76983140,76981643,40.15368573200424,116.25987053108379,99.66972,99.65625,0.0035839826,0.34549278,0.4118303,nan,2,2,0,0
77186310,77181467,40.153696719619305,116.25989784930773,99.665634,99.65012,0.0035839826,0.3418734,0.41139543,nan,2,2,0,0
77382646,77378051,40.15370760898274,116.25992467164797,99.65999,99.64443,0.0035839826,0.34502736,0.41161618,nan,2,2,0,0
77573786,77569429,40.15371832023436,116.2599507199942,99.6567,99.64262,0.0035839826,0.34484717,0.4119447,nan,2,2,0,0
77774051,77769621,40.15372959957525,116.25997785961037,99.65259,99.63921,0.0035839826,0.34461567,0.4118331,nan,2,2,0,0
77978722,77974141,40.15374118642385,116.2600054847214,99.6483,99.633125,0.0035839826,0.3444416,0.41174164,nan,2,2,0,0
78182341,78177454,40.153752808948894,116.26003286459104,99.6461,99.63045,0.0035839826,0.34499285,0.4118818,nan,2,2,0,0
78379972,78373040,40.15376412657232,116.26005912592503,99.642105,99.62541,0.0035839826,0.34439743,0.41164723,nan,2,2,0,0
78585588,78581479,40.1537762620242,116.26008704229535,99.64282,99.62757,0.0035839826,0.34459516,0.41167918,nan,2,2,0,0
78778968,78773869,40.15378757182481,116.26011269177388,99.63953,99.62383,0.0035839826,0.34156308,0.41141957,nan,2,2,0,0
78973561,78969180,40.15379919064609,116.2601386454121,99.63568,99.620575,0.0035839826,0.34400696,0.41142988,nan,2,2,0,0
79179368,79174063,40.153811346814315,116.26016580056061,99.63315,99.61704,0.0035839826,0.34430435,0.41149256,nan,2,2,0,0
79382118,79377875,40.15382337426047,116.26019285750606,99.621376,99.60441,0.0035839826,0.3445715,0.41155136,nan,2,2,0,0
79577909,79573176,40.15383488383192,116.26021883073797,99.61503,99.599045,0.0035839826,0.34447047,0.41189712,nan,2,2,0,0
79778044,79773546,40.15384675867865,116.26024549073314,99.60921,99.59242,0.0035839826,0.3450523,0.4116304,nan,2,2,0,0
79985741,79981914,40.153859121885716,116.26027313176337,99.609024,99.592514,0.0035839826,0.34546575,0.41172543,nan,2,2,0,0
80182784,80178819,40.1538708123008,116.26029919192635,99.605804,99.58955,0.0035839826,0.34474593,0.41188306,nan,2,2,0,0
80378591,80373331,40.15388234326004,116.26032495028514,99.59799,99.58248,0.0035839826,0.34484375,0.41188306,nan,2,2,0,0
80582698,80578587,40.153894393581226,116.26035223207268,99.59836,99.58263,0.0035839826,0.34492347,0.41186994,nan,2,2,0,0
80781994,80778618,40.15390601699907,116.26037894076111,99.5988,99.585,0.0035839826,0.34466645,0.4117465,nan,2,2,0,0
80979051,80973874,40.1539173908111,116.26040499699907,99.5999,99.58633,0.0035839826,0.3415259,0.41143325,nan,2,2,0,0
81182443,81179002,40.15392927602919,116.26043237037464,99.60143,99.587166,0.0035839826,0.34494376,0.41175607,nan,2,2,0,0
81386110,81381842,40.15394100234026,116.26045943243038,99.60247,99.590294,0.0035839826,0.3446717,0.41163242,nan,2,2,0,0
81585531,81581233,40.15395253887231,116.26048601978275,99.59994,99.587814,0.0035839826,0.34414068,0.41142893,nan,2,2,0,0
81774000,81769690,40.15396354615281,116.26051106899868,99.59885,99.58702,0.0035839826,0.34410462,0.41139072,nan,2,2,0,0
81981563,81978091,40.153975713339435,116.26053867133658,99.5926,99.58136,0.0035839826,0.3443492,0.41184548,nan,2,2,0,0
82174357,82169839,40.15398696609751,116.26056406332239,99.588745,99.57613,0.0035839826,0.34426433,0.41177377,nan,2,2,0,0
82378499,82373798,40.153999027073446,116.2605910227394,99.588,99.57604,0.0035839826,0.34449396,0.4118116,nan,2,2,0,0
82573496,82569228,40.15401063014783,116.2606168185437,99.59021,99.57873,0.0035839826,0.34432486,0.4117206,nan,2,2,0,0
82778203,82773737,40.15402283121911,116.2606437666739,99.59209,99.579796,0.0035839826,0.3448676,0.41185972,nan,2,2,0,0
82982500,82977387,40.154035100490574,116.26067048608135,99.59285,99.58035,0.0035839826,0.34496444,0.41184714,nan,2,2,0,0
83182345,83177905,40.15404726588718,116.26069673401966,99.59232,99.57789,0.0035839826,0.34433082,0.41160187,nan,2,2,0,0
83382680,83378521,40.154059441295516,116.26072297424751,99.58711,99.57237,0.0035839826,0.34419566,0.41193572,nan,2,2,0,0
83578267,83572971,40.15407123825039,116.26074835033825,99.58586,99.57096,0.0035839826,0.34372196,0.41173473,nan,2,2,0,0
83773671,83769461,40.15408316432318,116.26077396810545,99.58539,99.569145,0.0035839826,0.34370565,0.41169685,nan,2,2,0,0
83982585,83977440,40.15409575740657,116.2608011202677,99.58373,99.56727,0.0035839826,0.34118626,0.41118562,nan,2,2,0,0
84181467,84177771,40.154107821913634,116.26082733754708,99.58559,99.56951,0.0035839826,0.34507704,0.4116657,nan,2,2,0,0
84378093,84373785,40.15411966961314,116.26085295803172,99.586296,99.57139,0.0035839826,0.34580338,0.4122968,nan,2,2,0,0
84582774,84574061,40.15413180107684,116.26087908574135,99.59082,99.57756,0.0035839826,0.35014975,0.41275263,nan,2,2,0,0
84782959,84781602,40.15414443063986,116.26090615176433,99.58334,99.56833,0.0035839826,0.3494653,0.41261372,nan,2,2,0,0
84982454,84978074,40.15415647345814,116.26093171896129,99.58435,99.57009,0.0035839826,0.3492085,0.41259745,nan,2,2,0,0
85173641,85166601,40.15416803545876,116.260956257195,99.58227,99.57142,0.0035839826,0.35283267,0.41286135,nan,2,2,0,0
85378268,85373953,40.15418084504637,116.2609832239684,99.58336,99.57164,0.0035839826,0.34712365,0.41224653,nan,2,2,0,0
85583083,85574055,40.154193211414174,116.26100922964721,99.587036,99.57511,0.0035839826,0.35003793,0.4124043,nan,2,2,0,0
85778199,85773708,40.154205561036925,116.26103514879578,99.58104,99.56791,0.0035839826,0.35270715,0.41283938,nan,2,2,0,0
85981914,85978413,40.15421834948686,116.26106161234338,99.58153,99.56979,0.0035839826,0.35156035,0.41216335,nan,2,2,0,0
86178424,86173103,40.154230591535836,116.26108668191593,99.579155,99.567795,0.0035839826,0.34929967,0.4120247,nan,2,2,0,0
86377552,86373040,40.154243247710696,116.26111232676763,99.57625,99.56331,0.0035839826,0.347545,0.41153485,nan,2,2,0,0
86582026,86577634,40.15425635451551,116.2611384567711,99.56662,99.55347,0.0035839826,0.34693265,0.41134953,nan,2,2,0,0
86773368,86769096,40.154268676981715,116.26116281215897,99.56439,99.55183,0.0035839826,0.34517664,0.4108413,nan,2,2,0,0
86985877,86981555,40.154282366134154,116.26118989665272,99.56318,99.549286,0.0035839826,0.3455885,0.4108964,nan,2,2,0,0
87181407,87177252,40.154295012153185,116.26121476592287,99.56469,99.55037,0.0035839826,0.34459803,0.41060087,nan,2,2,0,0
87373898,87369561,40.15430754153704,116.26123921219649,99.5567,99.54395,0.0035839826,0.34497833,0.41066095,nan,2,2,0,0
87581440,87577197,40.154321079470805,116.26126553007074,99.55684,99.54284,0.0035839826,0.34449878,0.41086733,nan,2,2,0,0
87782212,87777759,40.15433420821949,116.26129088200092,99.55476,99.54071,0.0035839826,0.3450298,0.41064408,nan,2,2,0,0
87979113,87974414,40.154347089420085,116.26131580302847,99.554344,99.539406,0.0035839826,0.34471044,0.41091675,nan,2,2,0,0
88177862,88173229,40.1543600932857,116.26134104545137,99.552956,99.539154,0.0035839826,0.3451576,0.41105783,nan,2,2,0,0
88386074,88381839,40.15437361334891,116.26136764345067,99.55031,99.536255,0.0035839826,0.34561503,0.41121486,nan,2,2,0,0
88581876,88577441,40.15438614186029,116.26139266646926,99.54436,99.530594,0.0035839826,0.3451896,0.4111387,nan,2,2,0,0
88782183,88777592,40.154398847642845,116.26141832723893,99.53993,99.52651,0.0035839826,0.34207183,0.41102237,nan,2,2,0,0
88977847,88975339,40.15441135307809,116.26144372946754,99.53755,99.524666,0.0035839826,0.34526196,0.41125065,nan,2,2,0,0
89178449,89173694,40.154423875520145,116.26146925199954,99.53838,99.52607,0.0035839826,0.34562996,0.41139913,nan,2,2,0,0
89381785,89379001,40.1544367165629,116.2614958141057,99.538086,99.5261,0.0035839826,0.34519672,0.4113132,nan,2,2,0,0
89582209,89577593,40.154449021894784,116.26152159410876,99.53816,99.52668,0.0035839826,0.34522483,0.4113533,nan,2,2,0,0
89781613,89777702,40.15446135548194,116.26154761722265,99.54031,99.53077,0.0035839826,0.3452757,0.41139138,nan,2,2,0,0
89985595,89981644,40.154473814743326,116.26157424002326,99.53536,99.52666,0.0035839826,0.3460199,0.4116316,nan,2,2,0,0
90173627,90168991,40.15448513317072,116.2615987596161,99.5373,99.5288,0.0035839826,0.3450638,0.4117656,nan,2,2,0,0
90378541,90374062,40.154497337993064,116.26162573540162,99.53583,99.526886,0.0035839826,0.34496337,0.41174233,nan,2,2,0,0
90582920,90578880,40.1545092897602,116.26165286846212,99.53578,99.52719,0.0035839826,0.3456349,0.41195884,nan,2,2,0,0
90782369,90777729,40.15452072529955,116.26167933612048,99.53616,99.529274,0.0035839826,0.3454208,0.4118848,nan,2,2,0,0
90981496,90977980,40.154532066135864,116.26170615748079,99.53596,99.5288,0.0035839826,0.3455962,0.411928,nan,2,2,0,0
91186019,91182394,40.15454348571379,116.26173358750277,99.53222,99.52483,0.0035839826,0.3456805,0.4119464,nan,2,2,0,0
91381512,91377870,40.154554211509584,116.26175988458326,99.531075,99.52327,0.0035839826,0.3450502,0.41172212,nan,2,2,0,0
91582452,91577868,40.15456502125745,116.26178691492771,99.52539,99.517456,0.0035839826,0.3422526,0.4115722,nan,2,2,0,0
91781949,91777670,40.154575756071466,116.26181401709346,99.52125,99.51126,0.0035839826,0.34501252,0.41207924,nan,2,2,0,0
91978091,91973566,40.154586284782766,116.26184062551447,99.51593,99.504364,0.0035839826,0.34513155,0.4116654,nan,2,2,0,0
92182050,92177491,40.15459716474801,116.2618683521541,99.51561,99.50457,0.0035839826,0.34556687,0.41177142,nan,2,2,0,0
92377927,92372977,40.15460750599798,116.26189492359532,99.519165,99.50805,0.0035839826,0.34449345,0.41181946,nan,2,2,0,0
92581806,92577540,40.1546182193517,116.26192284773938,99.52089,99.50962,0.0035839826,0.34468043,0.41185665,nan,2,2,0,0
92777589,92773068,40.15462834980249,116.26194965941269,99.519485,99.50908,0.0035839826,0.3441441,0.4116508,nan,2,2,0,0
92974122,92969611,40.15463839406359,116.26197664057705,99.52182,99.511185,0.0035839826,0.34443218,0.41172367,nan,2,2,0,0
93181364,93177296,40.15464879779089,116.26200531054815,99.52904,99.520676,0.0035839826,0.34430543,0.41164964,nan,2,2,0,0
93374207,93369569,40.15465812079215,116.26203198359067,99.536934,99.52888,0.0035839826,0.34427637,0.41160285,nan,2,2,0,0
93577984,93574142,40.15466774012765,116.26206055945102,99.541275,99.53402,0.0035839826,0.34452367,0.41164812,nan,2,2,0,0
93777472,93773377,40.15467680865221,116.26208858229474,99.54471,99.53756,0.0035839826,0.34401977,0.4118568,nan,2,2,0,0
93978065,93973629,40.15468561725504,116.26211687731674,99.54489,99.53703,0.0035839826,0.34461457,0.41201884,nan,2,2,0,0
94185766,94181639,40.15469450237723,116.26214644351306,99.5426,99.53448,0.0035839826,0.3447743,0.41160876,nan,2,2,0,0
94382223,94377854,40.15470258422935,116.26217445985469,99.54326,99.5344,0.0035839826,0.34392464,0.4117125,nan,2,2,0,0
94573819,94569251,40.15471023136478,116.26220190666636,99.54401,99.537384,0.0035839826,0.34387708,0.41165933,nan,2,2,0,0
94781416,94777377,40.15471822750172,116.26223191701754,99.546646,99.54102,0.0035839826,0.34382975,0.41161096,nan,2,2,0,0
94973985,94969673,40.15472527630586,116.26225974802574,99.547775,99.543724,0.0035839826,0.3439202,0.41160786,nan,2,2,0,0
95181275,95177464,40.15473255966899,116.26229000539594,99.54076,99.53616,0.0035839826,0.34431052,0.41170067,nan,2,2,0,0
95381950,95378014,40.15473927137624,116.2623193592766,99.53522,99.52975,0.0035839826,0.34461808,0.41175267,nan,2,2,0,0
95585467,95580983,40.15474567759183,116.26234924710373,99.52925,99.5242,0.0035839826,0.34411842,0.41154447,nan,2,2,0,0
95781949,95777549,40.15475155084724,116.26237829895044,99.5234,99.5201,0.0035839826,0.34413314,0.41150796,nan,2,2,0,0
95982614,95977948,40.15475713205495,116.2624079899557,99.52005,99.51757,0.0035839826,0.34382427,0.41176805,nan,2,2,0,0
96173644,96169301,40.154762055443186,116.26243644243586,99.51917,99.51681,0.0035839826,0.3438861,0.41174522,nan,2,2,0,0
96377393,96373274,40.15476695706695,116.26246685732238,99.516754,99.51398,0.0035839826,0.34354547,0.41158634,nan,2,2,0,0
96581748,96577328,40.15477141983142,116.26249737272808,99.51242,99.507706,0.0035839826,0.344404,0.41182354,nan,2,2,0,0
96782198,96777005,40.154775481910065,116.2625273548685,99.50668,99.50222,0.0035839826,0.34402037,0.41164643,nan,2,2,0,0
96977706,96973269,40.15477913863393,116.26255689746407,99.49883,99.494026,0.0035839826,0.3440855,0.41162267,nan,2,2,0,0
97178103,97174259,40.15478245472383,116.26258726019176,99.499725,99.49593,0.0035839826,0.34379143,0.41147998,nan,2,2,0,0
97381638,97377251,40.15478552460786,116.26261800389567,99.49797,99.496025,0.0035839826,0.3442446,0.41157922,nan,2,2,0,0
97582027,97577617,40.15478832087035,116.26264838957488,99.4973,99.49616,0.0035839826,0.3411018,0.41125658,nan,2,2,0,0
97781239,97777102,40.15479087561127,116.26267869121376,99.498,99.497215,0.0035839826,0.34405103,0.4118442,nan,2,2,0,0
97981231,97977554,40.15479331067678,116.26270915946245,99.49901,99.49832,0.0035839826,0.3441463,0.4118293,nan,2,2,0,0
98182079,98177908,40.15479549570802,116.26273965893624,99.50146,99.501045,0.0035839826,0.34457058,0.41192344,nan,2,2,0,0
98381750,98377330,40.15479739668117,116.26276999177604,99.505005,99.50513,0.0035839826,0.34450132,0.41185912,nan,2,2,0,0
98582081,98577047,40.154799039384834,116.26280039677545,99.50749,99.50686,0.0035839826,0.34413943,0.41169867,nan,2,2,0,0
98781574,98777240,40.15480043534489,116.26283089907096,99.511185,99.511246,0.0035839826,0.3445552,0.41179228,nan,2,2,0,0
98981264,98977249,40.15480165619831,116.26286137262828,99.51536,99.51553,0.0035839826,0.3438124,0.41150302,nan,2,2,0,0
99174128,99169720,40.15480267372625,116.26289064467034,99.52106,99.520935,0.0035839826,0.34430462,0.41162297,nan,2,2,0,0
99378008,99372898,40.15480357123907,116.26292162200374,99.52123,99.519196,0.0035839826,0.34464657,0.41168368,nan,2,2,0,0
99585449,99581769,40.154804456631005,116.26295345755253,99.52402,99.5221,0.0035839826,0.3449064,0.41172594,nan,2,2,0,0
99781931,99777549,40.15480527870241,116.26298328903869,99.52739,99.52498,0.0035839826,0.34481713,0.41165113,nan,2,2,0,0
99981661,99977401,40.154806020323925,116.26301376723345,99.526474,99.52467,0.0035839826,0.3443932,0.41188368,nan,2,2,0,0
100181492,100177219,40.154806644473375,116.2630442220795,99.53095,99.53078,0.0035839826,0.34369022,0.41160223,nan,2,2,0,0
100377611,100373079,40.154807132513774,116.26307406790608,99.52776,99.52723,0.0035839826,0.3442216,0.4117341,nan,2,2,0,0
100581934,100577640,40.15480762487915,116.26310524091517,99.52841,99.5279,0.0035839826,0.34459898,0.41180918,nan,2,2,0,0
100781642,100777086,40.15480813346544,116.26313558874637,99.53206,99.53363,0.0035839826,0.3445641,0.41175437,nan,2,2,0,0
100982233,100977746,40.154808683203164,116.26316612258773,99.53729,99.53877,0.0035839826,0.34161356,0.41149992,nan,2,2,0,0
101181515,101177301,40.15480928453348,116.26319657240741,99.53792,99.54054,0.0035839826,0.34449583,0.41162983,nan,2,2,0,0
101382046,101377610,40.15480997120451,116.26322714647802,99.54227,99.54507,0.0035839826,0.3415727,0.41139406,nan,2,2,0,0
101582192,101577415,40.1548107660062,116.26325761175458,99.54167,99.545235,0.0035839826,0.34448367,0.41194755,nan,2,2,0,0
101777373,101773960,40.15481161406726,116.26328755600223,99.5394,99.54249,0.0035839826,0.34377813,0.41166574,nan,2,2,0,0
101981562,101977325,40.15481262235298,116.2633185250947,99.538956,99.54159,0.0035839826,0.34461418,0.41189036,nan,2,2,0,0
102178354,102173195,40.15481371960443,116.2633483742059,99.53552,99.53711,0.0035839826,0.3442562,0.4117238,nan,2,2,0,0
102385643,102381043,40.15481494959768,116.26338004856285,99.53126,99.53203,0.0035839826,0.3414373,0.41150633,nan,2,2,0,0
102582093,102577830,40.15481618432758,116.26341002121264,99.53063,99.53153,0.0035839826,0.34180617,0.41120294,nan,2,2,0,0
102781483,102777353,40.15481749752307,116.26344041328232,99.52835,99.5302,0.0035839826,0.34472102,0.4117277,nan,2,2,0,0
102982013,102977188,40.154818874106134,116.263470862453,99.53038,99.532715,0.0035839826,0.34540424,0.41190434,nan,2,2,0,0
103181178,103176983,40.15482028745738,116.26350131773238,99.52937,99.53125,0.0035839826,0.34483087,0.41167992,nan,2,2,0,0
103382193,103377549,40.15482173235789,116.26353187032791,99.529724,99.530235,0.0035839826,0.34178406,0.41142234,nan,2,2,0,0
103581094,103576938,40.154823076261245,116.26356223762805,99.52774,99.528725,0.0035839826,0.34466055,0.4119674,nan,2,2,0,0
103781353,103777078,40.15482431284005,116.26359273347332,99.527275,99.52824,0.0035839826,0.34424663,0.41179234,nan,2,2,0,0
103977709,103973578,40.154825514581006,116.26362270541017,99.52239,99.52283,0.0035839826,0.34498468,0.4120028,nan,2,2,0,0
104182002,104177610,40.15482679722147,116.26365382068498,99.519424,99.51754,0.0035839826,0.34480438,0.4119056,nan,2,2,0,0
104381839,104377314,40.15482809937268,116.26368426339437,99.51911,99.51739,0.0035839826,0.3450145,0.4119388,nan,2,2,0,0
104581308,104576904,40.1548294657415,116.26371462531596,99.51956,99.5184,0.0035839826,0.34482822,0.41184038,nan,2,2,0,0
104782216,104777996,40.15483101871718,116.26374522856051,99.52214,99.519775,0.0035839826,0.34538367,0.41197586,nan,2,2,0,0
104981468,104977423,40.15483275091474,116.26377556537986,99.51886,99.5164,0.0035839826,0.3453785,0.41192496,nan,2,2,0,0
105173732,105169465,40.15483448096924,116.26380469710756,99.51915,99.517136,0.0035839826,0.3449757,0.41175574,nan,2,2,0,0
105377473,105372958,40.154836413473845,116.26383556503569,99.5242,99.52135,0.0035839826,0.34463933,0.41202617,nan,2,2,0,0
105578408,105573388,40.15483841213331,116.26386603223116,99.52129,99.5176,0.0035839826,0.3447519,0.41202363,nan,2,2,0,0
105777476,105772798,40.154840428632276,116.26389633927757,99.517624,99.514,0.0035839826,0.34444708,0.4118866,nan,2,2,0,0
105973819,105969283,40.15484239629589,116.26392616083699,99.51424,99.5115,0.0035839826,0.34458536,0.41189998,nan,2,2,0,0
106173273,106168858,40.15484437051382,116.26395646572871,99.515114,99.512535,0.0035839826,0.34360203,0.41153938,nan,2,2,0,0
106381063,106376779,40.154846422052074,116.26398806549385,99.51164,99.51,0.0035839826,0.3438996,0.4115998,nan,2,2,0,0
106578063,106572884,40.154848315862274,116.26401793552863,99.51261,99.51064,0.0035839826,0.34420905,0.41166896,nan,2,2,0,0
106778472,106774020,40.15485034026409,116.26404856073505,99.5126,99.51122,0.0035839826,0.34441367,0.41170567,nan,2,2,0,0
106977974,106973557,40.154852436302576,116.26407893889844,99.511284,99.51042,0.0035839826,0.34458205,0.41172647,nan,2,2,0,0
107181233,107177184,40.15485463028236,116.26410988227425,99.51146,99.50948,0.0035839826,0.3443657,0.4116171,nan,2,2,0,0
107373167,107368760,40.154856727745354,116.26413897347649,99.51039,99.50869,0.0035839826,0.34451628,0.41204894,nan,2,2,0,0
107577604,107573185,40.15485901995976,116.2641699714463,99.50536,99.502464,0.0035839826,0.34424347,0.41191673,nan,2,2,0,0
107781517,107777185,40.15486135662873,116.26420093710449,99.499565,99.49664,0.0035839826,0.3437412,0.41171044,nan,2,2,0,0
107981793,107977191,40.154863688106154,116.26423132176275,99.49541,99.49209,0.0035839826,0.34406495,0.41177842,nan,2,2,0,0
108177960,108173657,40.154866010549604,116.26426113619326,99.49013,99.48478,0.0035839826,0.3443337,0.41183943,nan,2,2,0,0
108378043,108373752,40.154868452340814,116.26429151799324,99.48566,99.48073,0.0035839826,0.34451994,0.41186476,nan,2,2,0,0
108577351,108573170,40.154870936396485,116.26432177340098,99.48393,99.4795,0.0035839826,0.3446072,0.41185313,nan,2,2,0,0
108777882,108772774,40.15487342126448,116.26435208626484,99.48457,99.47929,0.0035839826,0.34436068,0.41172343,nan,2,2,0,0
108981547,108977082,40.15487587370076,116.26438309862803,99.48507,99.47962,0.0035839826,0.3415892,0.41152918,nan,2,2,0,0
109177429,109172789,40.15487805257074,116.26441285129259,99.48562,99.48073,0.0035839826,0.34460554,0.4117233,nan,2,2,0,0
109381711,109377307,40.154880239320306,116.26444389523436,99.4893,99.48621,0.0035839826,0.34495437,0.4118053,nan,2,2,0,0
109577606,109573039,40.15488225926923,116.26447361700616,99.489334,99.486084,0.0035839826,0.3445797,0.411644,nan,2,2,0,0
109782027,109777434,40.15488434308185,116.2645046882325,99.48816,99.48548,0.0035839826,0.34173566,0.41143247,nan,2,2,0,0
109981189,109977037,40.15488640524548,116.26453503410413,99.48985,99.487076,0.0035839826,0.34435448,0.41190755,nan,2,2,0,0
110181276,110177232,40.154888556593335,116.26456545898526,99.49008,99.48902,0.0035839826,0.34380814,0.4116869,nan,2,2,0,0
110381857,110377474,40.15489077517045,116.26459594204688,99.49529,99.49408,0.0035839826,0.3409593,0.41143617,nan,2,2,0,0
110581095,110577099,40.15489303902961,116.26462632744344,99.49745,99.49498,0.0035839826,0.34338027,0.41146296,nan,2,2,0,0
110781379,110776928,40.154895387688626,116.26465667119633,99.49646,99.49372,0.0035839826,0.3434656,0.41145584,nan,2,2,0,0
110978312,110973030,40.15489773033666,116.26468641168547,99.49687,99.49425,0.0035839826,0.34358874,0.41145536,nan,2,2,0,0
111177813,111173176,40.1549000400058,116.26471679206549,99.495056,99.49221,0.0035839826,0.34088156,0.41125962,nan,2,2,0,0
111373443,111369220,40.15490216856486,116.26474656126433,99.50017,99.49824,0.0035839826,0.3437097,0.4114192,nan,2,2,0,0
111577508,111573185,40.15490428442007,116.26477755135781,99.5002,99.49728,0.0035839826,0.34375077,0.41139632,nan,2,2,0,0
111781938,111777719,40.15490634647061,116.26480860895607,99.50128,99.49906,0.0035839826,0.3434989,0.41168082,nan,2,2,0,0
111973369,111969299,40.154908232156195,116.26483771238958,99.5048,99.50261,0.0035839826,0.34396526,0.41179836,nan,2,2,0,0
112185684,112181508,40.15491029192496,116.26486995138592,99.50644,99.5026,0.0035839826,0.34392932,0.41174415,nan,2,2,0,0
112385413,112381602,40.15491220359014,116.26490036190046,99.50865,99.505196,0.0035839826,0.3446901,0.41195607,nan,2,2,0,0
112573851,112569437,40.15491400036139,116.26492895039983,99.50757,99.504036,0.0035839826,0.3442307,0.41176137,nan,2,2,0,0
112773321,112768973,40.15491594797085,116.2649592510409,99.51071,99.50648,0.0035839826,0.34380922,0.4115804,nan,2,2,0,0
112981860,112977332,40.154918098312365,116.26499086811602,99.51016,99.50797,0.0035839826,0.3413151,0.4114637,nan,2,2,0,0
113181014,113176761,40.15492026327232,116.26502114723809,99.51596,99.51363,0.0035839826,0.34446263,0.41170076,nan,2,2,0,0
113373611,113369223,40.15492248125701,116.26505038286196,99.52114,99.519516,0.0035839826,0.34434906,0.41203764,nan,2,2,0,0
113585749,113580628,40.15492499190111,116.26508244165726,99.52248,99.5194,0.0035839826,0.34420863,0.41152793,nan,2,2,0,0
113781389,113777050,40.15492738987331,116.26511228056961,99.52198,99.52022,0.0035839826,0.34421778,0.41190216,nan,2,2,0,0
113985349,113980880,40.15492996314738,116.26514316947188,99.52254,99.520996,0.0035839826,0.34416354,0.41143546,nan,2,2,0,0
114177448,114173007,40.154932410002424,116.26517226364807,99.52375,99.5221,0.0035839826,0.344212,0.41182378,nan,2,2,0,0
114377304,114373038,40.15493499097963,116.26520259884413,99.522934,99.52275,0.0035839826,0.34453866,0.4118919,nan,2,2,0,0
114577520,114573297,40.15493775528047,116.26523296350716,99.5249,99.52681,0.0035839826,0.3447629,0.41192302,nan,2,2,0,0
114780857,114776834,40.154940749261755,116.26526376269224,99.52791,99.529724,0.0035839826,0.34426397,0.41171816,nan,2,2,0,0
114977323,114972782,40.15494388300167,116.26529343220834,99.527725,99.52966,0.0035839826,0.34418672,0.41164973,nan,2,2,0,0
115181963,115177350,40.154947366581375,116.26532433343249,99.52948,99.530556,0.0035839826,0.3441311,0.41159612,nan,2,2,0,0
115382274,115376674,40.15495098111858,116.26535440805638,99.531815,99.53205,0.0035839826,0.34378275,0.4114396,nan,2,2,0,0
115582427,115577676,40.15495486843894,116.26538469457442,99.53202,99.53028,0.0035839826,0.34424764,0.41154647,nan,2,2,0,0
115773274,115769193,40.154958781370276,116.26541349878853,99.53092,99.52912,0.0035839826,0.34388214,0.4117967,nan,2,2,0,0
115982100,115977558,40.15496330122229,116.26544476425367,99.53221,99.53028,0.0035839826,0.34426466,0.4114727,nan,2,2,0,0
116178016,116173553,40.15496788212134,116.26547405762487,99.53258,99.52883,0.0035839826,0.34394166,0.4117369,nan,2,2,0,0
116377231,116372689,40.15497282251947,116.26550373023561,99.53318,99.530876,0.0035839826,0.34431538,0.41182086,nan,2,2,0,0
116585379,116582108,40.154978235967,116.26553489167753,99.53553,99.53328,0.0035839826,0.3446662,0.41188964,nan,2,2,0,0
116777244,116772682,40.154983368555335,116.2655631875795,99.534,99.53045,0.0035839826,0.3445808,0.41181904,nan,2,2,0,0
116982123,116976765,40.15498906089157,116.26559339963644,99.5338,99.5313,0.0035839826,0.34483543,0.41185504,nan,2,2,0,0
117182317,117177333,40.154994896798335,116.26562299767592,99.532684,99.52901,0.0035839826,0.34466895,0.41175082,nan,2,2,0,0
117381495,117376982,40.155000843863384,116.26565239751703,99.53185,99.52788,0.0035839826,0.34450886,0.4116533,nan,2,2,0,0
117573884,117569404,40.15500674324136,116.26568066838823,99.52809,99.52414,0.0035839826,0.34409213,0.41148242,nan,2,2,0,0
117781038,117776745,40.15501322951824,116.26571112186242,99.526596,99.52263,0.0035839826,0.34407154,0.41184527,nan,2,2,0,0
117985556,117981008,40.155019887901574,116.26574107335834,99.526794,99.5218,0.0035839826,0.3448224,0.4116311,nan,2,2,0,0
118181195,118176753,40.15502657381486,116.26576964525053,99.52707,99.52169,0.0035839826,0.34468675,0.4119607,nan,2,2,0,0
118378392,118372834,40.155033588521555,116.26579809940563,99.52694,99.523,0.0035839826,0.3448975,0.4119866,nan,2,2,0,0
118581284,118576963,40.15504122862306,116.26582762587337,99.526855,99.52192,0.0035839826,0.34502026,0.41197863,nan,2,2,0,0
118773221,118769004,40.15504867837424,116.26585529009915,99.52301,99.517166,0.0035839826,0.34407026,0.41162613,nan,2,2,0,0
118981813,118977292,40.15505699742927,116.26588517143725,99.518616,99.51236,0.0035839826,0.34438688,0.41169813,nan,2,2,0,0
119177418,119172832,40.1550650616465,116.26591307633613,99.51411,99.507034,0.0035839826,0.3440182,0.41154385,nan,2,2,0,0
119385396,119380663,40.15507393647433,116.26594260728447,99.51099,99.50366,0.0035839826,0.3440592,0.4115204,nan,2,2,0,0
119581554,119577238,40.15508260201087,116.26597035857854,99.510376,99.50359,0.0035839826,0.34415886,0.41152394,nan,2,2,0,0
119780852,119776703,40.15509173930628,116.26599834262416,99.51076,99.50326,0.0035839826,0.3434889,0.41167417,nan,2,2,0,0
119981599,119977224,40.15510120566345,116.26602630445288,99.5094,99.502525,0.0035839826,0.34440106,0.41153243,nan,2,2,0,0
120180962,120177186,40.15511092370285,116.26605401854893,99.50929,99.50326,0.0035839826,0.34401006,0.41178277,nan,2,2,0,0
120381496,120377015,40.15512087750057,116.26608156965527,99.50845,99.50139,0.0035839826,0.34445992,0.41189167,nan,2,2,0,0
120585562,120581609,40.15513131456122,116.26610967884989,99.50444,99.4964,0.0035839826,0.3451466,0.41207975,nan,2,2,0,0
120781812,120777198,40.155141570024675,116.26613641703429,99.50094,99.49302,0.0035839826,0.34458894,0.4118498,nan,2,2,0,0
120981214,120976847,40.15515234828991,116.26616346123262,99.50148,99.49611,0.0035839826,0.34448242,0.41177624,nan,2,2,0,0
121173431,121169217,40.15516303551773,116.26618927950258,99.5038,99.498344,0.0035839826,0.34408966,0.41160157,nan,2,2,0,0
121381504,121376956,40.15517487008867,116.26621695224998,99.50392,99.49917,0.0035839826,0.34440568,0.41166162,nan,2,2,0,0
121573749,121568637,40.15518602307859,116.2662423439971,99.5055,99.500404,0.0035839826,0.34366646,0.41179007,nan,2,2,0,0
121781688,121777061,40.15519837663765,116.26626982650988,99.50096,99.49583,0.0035839826,0.34443647,0.41159317,nan,2,2,0,0
121977502,121973179,40.15521020199944,116.26629552501815,99.49936,99.496826,0.0035839826,0.3447549,0.4116587,nan,2,2,0,0
122185657,122181575,40.15522298920132,116.26632269376063,99.50226,99.50051,0.0035839826,0.34532985,0.41180962,nan,2,2,0,0
122381593,122377242,40.15523521939811,116.26634795927693,99.508286,99.50741,0.0035839826,0.34574297,0.41190332,nan,2,2,0,0
122577602,122573098,40.15524770264734,116.26637303164414,99.51364,99.51496,0.0035839826,0.34495926,0.4120416,nan,2,2,0,0
122777312,122772634,40.15526070348781,116.26639835616483,99.51828,99.51914,0.0035839826,0.3439902,0.4116813,nan,2,2,0,0
122981559,122977206,40.15527436490381,116.26642399605709,99.52503,99.52707,0.0035839826,0.34431863,0.4117617,nan,2,2,0,0
123173037,123168596,40.15528743144592,116.26644768962562,99.53006,99.53116,0.0035839826,0.3435544,0.41148084,nan,2,2,0,0
123385283,123380721,40.15530224085824,116.26647363131603,99.53027,99.531685,0.0035839826,0.34397453,0.41158968,nan,2,2,0,0
123577065,123572783,40.15531589035786,116.26649687037077,99.52902,99.53059,0.0035839826,0.34405258,0.4115901,nan,2,2,0,0
123781511,123777089,40.15533059227654,116.26652142239581,99.527336,99.529854,0.0035839826,0.3444181,0.41168162,nan,2,2,0,0
123977276,123972551,40.155344839242154,116.26654472474492,99.5255,99.52755,0.0035839826,0.34403318,0.41151878,nan,2,2,0,0
124181738,124177223,40.155359948462674,116.26656891990797,99.523056,99.525955,0.0035839826,0.34511396,0.4118271,nan,2,2,0,0
124381767,124377753,40.15537495728184,116.26659240263649,99.52243,99.52602,0.0035839826,0.3449044,0.41171992,nan,2,2,0,0
124581279,124577175,40.15539007919451,116.26661555790058,99.52397,99.52778,0.0035839826,0.34473726,0.41162264,nan,2,2,0,0
124785949,124781224,40.15540580514995,116.26663897682349,99.52652,99.53098,0.0035839826,0.344943,0.41164207,nan,2,2,0,0
124977082,124972754,40.155420786090595,116.26666072517885,99.52783,99.53358,0.0035839826,0.34371153,0.41161287,nan,2,2,0,0
125181478,125177274,40.1554370549408,116.26668361776754,99.5307,99.538185,0.0035839826,0.3441132,0.4117033,nan,2,2,0,0
125380935,125376766,40.15545311636038,116.26670572537111,99.52942,99.53715,0.0035839826,0.34412417,0.41166902,nan,2,2,0,0
125581048,125577182,40.155469424790894,116.26672771236294,99.52547,99.531494,0.0035839826,0.3445108,0.4117579,nan,2,2,0,0
125781829,125777191,40.15548585069785,116.26674949398125,99.52127,99.52858,0.0035839826,0.3415515,0.4114972,nan,2,2,0,0
125981033,125977219,40.15550236964845,116.26677115999529,99.518135,99.52518,0.0035839826,0.34472156,0.4117366,nan,2,2,0,0
126181718,126177278,40.15551898987625,116.26679271040614,99.51665,99.52359,0.0035839826,0.34195372,0.4115464,nan,2,2,0,0
126381577,126377180,40.15553565374418,116.2668141768062,99.5179,99.52526,0.0035839826,0.344687,0.41205037,nan,2,2,0,0
126573435,126569184,40.15555173749055,116.26683469658005,99.51938,99.52687,0.0035839826,0.34451133,0.41194382,nan,2,2,0,0
126773073,126768851,40.155568597881754,116.2668558491818,99.52217,99.53102,0.0035839826,0.34401608,0.4117292,nan,2,2,0,0
126982483,126976610,40.155586258523826,116.26687758793405,99.523605,99.532295,0.0035839826,0.34429148,0.41178253,nan,2,2,0,0
127172982,127168731,40.15560272598458,116.2668975497625,99.524345,99.53226,0.0035839826,0.3441998,0.41170752,nan,2,2,0,0
127381429,127377031,40.155620635285935,116.26691910256052,99.52185,99.53018,0.0035839826,0.34479854,0.41186604,nan,2,2,0,0
127585668,127581275,40.15563817218741,116.26694021004865,99.521866,99.53021,0.0035839826,0.34167382,0.41154623,nan,2,2,0,0
127781207,127777042,40.1556549931062,116.26696048651758,99.51999,99.52916,0.0035839826,0.3440852,0.41153926,nan,2,2,0,0
127977820,127972973,40.15567183515752,116.26698071990849,99.52039,99.529015,0.0035839826,0.34408015,0.41150168,nan,2,2,0,0
128172747,128168497,40.1556886783096,116.26700087000057,99.519424,99.529015,0.0035839826,0.34336782,0.41162756,nan,2,2,0,0
128373215,128368957,40.15570598221933,116.26702156454557,99.52069,99.52963,0.0035839826,0.34379765,0.41172764,nan,2,2,0,0
128581890,128577587,40.15572398151735,116.2670431217302,99.51915,99.526566,0.0035839826,0.34344774,0.41156545,nan,2,2,0,0
128773090,128768968,40.15574041794539,116.26706297231695,99.51755,99.52359,0.0035839826,0.34357342,0.41156822,nan,2,2,0,0
128984944,128980770,40.15575843997143,116.26708508755392,99.51373,99.51942,0.0035839826,0.3440435,0.4116905,nan,2,2,0,0
129178257,129173225,40.15577471827791,116.26710532667622,99.51134,99.51759,0.0035839826,0.3444825,0.4117926,nan,2,2,0,0
129380808,129377098,40.15579188624485,116.26712692113826,99.5061,99.51157,0.0035839826,0.34409598,0.41161716,nan,2,2,0,0
129577290,129572922,40.15580837446325,116.26714761563662,99.504395,99.51021,0.0035839826,0.3444157,0.41168427,nan,2,2,0,0
129781665,129777189,40.15582562283852,116.26716918499457,99.504974,99.51103,0.0035839826,0.34472612,0.41174483,nan,2,2,0,0
129972759,129968512,40.155841830599485,116.26718938536557,99.50737,99.51509,0.0035839826,0.34426752,0.41196996,nan,2,2,0,0
130173323,130169180,40.15585889154864,116.26721055469126,99.50524,99.51454,0.0035839826,0.34415323,0.411889,nan,2,2,0,0
