timestamp,timestamp_sample,lat,lon,alt,alt_ellipsoid,delta_alt,eph,epv,terrain_alt,lat_lon_reset_counter,alt_reset_counter,terrain_alt_valid,dead_reckoning
46177907,46173474,40.15177901789159,116.25797090660323,49.990395,49.822002,0.0015898123,0.76811457,0.84999996,nan,2,2,0,0
46189692,46185304,40.15177901713575,116.25797090628674,49.990345,49.821953,0.0015898123,0.76812685,0.8500125,nan,2,2,0,0
46377670,46373490,40.15177898129182,116.25797112398676,49.989384,49.82283,0.0015898123,0.5073977,0.45586085,nan,2,2,0,0
46582113,46577796,40.151778967401015,116.25797143813142,49.983303,49.81813,0.0015898123,0.43782106,0.43179455,nan,2,2,0,0
46777663,46773285,40.151778859400004,116.25797153454415,49.981644,49.81919,0.0015898123,0.42069048,0.4245732,nan,2,2,0,0
46982085,46977786,40.15177877672608,116.25797153312472,49.980003,49.81937,0.0015898123,0.3858064,0.41961303,nan,2,2,0,0
47177902,47174447,40.151778761707625,116.25797153990759,49.978508,49.817905,0.0015898123,0.37374762,0.4176249,nan,2,2,0,0
47374386,47369926,40.15177878023515,116.25797159202665,49.977497,49.816944,0.0015898123,0.36505055,0.41602445,nan,2,2,0,0
47582494,47577650,40.15177876225727,116.2579716434291,49.97483,49.81517,0.0015898123,0.35922354,0.41527912,nan,2,2,0,0
47777750,47772999,40.15177876334406,116.25797166621857,49.97054,49.812782,0.0015898123,0.35476685,0.4152728,nan,2,2,0,0
47981454,47977171,40.151778819014375,116.25797165679226,49.966232,49.80998,0.0015898123,0.35141778,0.4146763,nan,2,2,0,0
48182480,48177079,40.151778814914756,116.25797163288317,49.964005,49.808212,0.0015898123,0.34912762,0.41433445,nan,2,2,0,0
48381569,48377373,40.151778821520836,116.25797164112144,49.95878,49.80293,0.0015898123,0.3473844,0.41399917,nan,2,2,0,0
48578016,48573832,40.15177882497808,116.25797161045713,49.953377,49.799282,0.0015898123,0.34584576,0.41355288,nan,2,2,0,0
48774066,48769556,40.151778808679325,116.2579715674539,49.95009,49.797573,0.0015898123,0.3449091,0.4132772,nan,2,2,0,0
48973391,48969062,40.15177879599665,116.25797156007127,49.949825,49.799973,0.0015898123,0.34389418,0.4128568,nan,2,2,0,0
49177881,49173205,40.15177879785825,116.25797155708435,49.949936,49.801792,0.0015898123,0.34312755,0.41248697,nan,2,2,0,0
49381832,49377237,40.151778795934526,116.25797156936966,49.94793,49.80186,0.0015898123,0.34261224,0.41218743,nan,2,2,0,0
49581404,49577206,40.151778774280096,116.25797157669219,49.944763,49.800217,0.0015898123,0.34172118,0.41174102,nan,2,2,0,0
49773657,49769578,40.151778758330664,116.25797161775144,49.939964,49.796925,0.0015898123,0.34199807,0.4117281,nan,2,2,0,0
49978085,49973344,40.15177876952702,116.25797166258052,49.93811,49.79902,0.0015898123,0.34159473,0.41187534,nan,2,2,0,0
50181136,50177896,40.15177877644683,116.25797167942955,49.93717,49.799324,0.0015898123,0.3417032,0.41177964,nan,2,2,0,0
50381568,50377542,40.15177877375849,116.25797167759625,49.935802,49.798885,0.0015898123,0.34182826,0.41169402,nan,2,2,0,0
50582310,50577915,40.151778766623174,116.25797165694928,49.93388,49.7983,0.0015898123,0.3422777,0.41172186,nan,2,2,0,0
50781303,50777283,40.15177878429509,116.25797164729717,49.932095,49.797062,0.0015898123,0.34436038,0.41186023,nan,2,2,0,0
50977510,50973186,40.151778778371416,116.25797163367444,49.928986,49.796654,0.0015898123,0.34379894,0.4120103,nan,2,2,0,0
51173693,51169575,40.151778797034176,116.25797161637105,49.928173,49.79629,0.0015898123,0.34369922,0.4118807,nan,2,2,0,0
51373259,51369097,40.15177884579549,116.25797158160599,49.92799,49.796944,0.0015898123,0.3469137,0.41196886,nan,2,2,0,0
51574297,51569676,40.151778875841956,116.25797156666616,49.926456,49.798096,0.0015898123,0.34245437,0.41135076,nan,2,2,0,0
51778224,51773682,40.15177889007809,116.25797160312624,49.92321,49.79825,0.0015898123,0.34259212,0.41135073,nan,2,2,0,0
51973691,51969228,40.151778882912154,116.25797162994282,49.92147,49.796642,0.0015898123,0.34598657,0.41198066,nan,2,2,0,0
52182106,52178064,40.151778845102,116.2579716642756,49.91899,49.79525,0.0015898123,0.34225276,0.41117135,nan,2,2,0,0
52377587,52373074,40.151778824247685,116.25797169239718,49.916325,49.796207,0.0015898123,0.34572673,0.41184133,nan,2,2,0,0
52582016,52577611,40.15177880585615,116.25797170216394,49.91518,49.79562,0.0015898123,0.34251577,0.41120315,nan,2,2,0,0
52781802,52777873,40.151778817272834,116.25797171140641,49.91359,49.795612,0.0015898123,0.3424424,0.41154808,nan,2,2,0,0
52977892,52973409,40.15177878545809,116.25797170873881,49.91246,49.797775,0.0015898123,0.342384,0.41149384,nan,2,2,0,0
53173387,53169281,40.15177874298125,116.25797172540733,49.913246,49.798626,0.0015898123,0.3420049,0.41134053,nan,2,2,0,0
53377777,53373460,40.15177871322519,116.25797175424418,49.913704,49.801575,0.0015898123,0.3426815,0.4115426,nan,2,2,0,0
53582823,53577430,40.15177872487559,116.2579717690788,49.914364,49.80345,0.0015898123,0.34283707,0.41156048,nan,2,2,0,0
53778363,53773649,40.1517787436501,116.25797176989582,49.91365,49.803448,0.0015898123,0.34199557,0.4112472,nan,2,2,0,0
53981582,53978277,40.15177877480575,116.25797178722165,49.91071,49.80149,0.0015898123,0.3426227,0.4114261,nan,2,2,0,0
54173729,54169487,40.151778758250444,116.2579718004371,49.90829,49.798683,0.0015898123,0.3425046,0.41135216,nan,2,2,0,0
54377667,54373028,40.15177878185587,116.25797177240639,49.905117,49.79755,0.0015898123,0.3423529,0.41166875,nan,2,2,0,0
54573377,54569158,40.151778786896124,116.25797172966429,49.902363,49.79466,0.0015898123,0.34572676,0.41191638,nan,2,2,0,0
54773746,54769309,40.15177881064125,116.25797167811382,49.898556,49.792862,0.0015898123,0.3421117,0.41150993,nan,2,2,0,0
54981457,54977419,40.151778799241285,116.25797166649768,49.89622,49.793964,0.0015898123,0.34206817,0.41145924,nan,2,2,0,0
55177533,55172735,40.15177878022327,116.25797167456493,49.895386,49.79389,0.0015898123,0.34174654,0.4113157,nan,2,2,0,0
55377252,55372725,40.15177875853777,116.2579716697814,49.893974,49.79458,0.0015898123,0.34481543,0.41149184,nan,2,2,0,0
55581560,55577396,40.151778746681664,116.25797167864084,49.896015,49.79865,0.0015898123,0.3419288,0.41130546,nan,2,2,0,0
55778839,55773732,40.15177876122659,116.25797170584555,49.89609,49.801163,0.0015898123,0.344662,0.411782,nan,2,2,0,0
55981291,55977178,40.15177879956616,116.25797168053121,49.897312,49.803234,0.0015898123,0.3452262,0.41191676,nan,2,2,0,0
56173637,56169372,40.151778795507035,116.25797167690327,49.90047,49.806545,0.0015898123,0.3419471,0.41119388,nan,2,2,0,0
56381688,56378661,40.15177878764781,116.2579717035158,49.901478,49.809494,0.0015898123,0.34267104,0.4118045,nan,2,2,0,0
56573731,56569499,40.15177875813589,116.25797170582074,49.903107,49.812447,0.0015898123,0.34256473,0.4117231,nan,2,2,0,0
56773893,56769510,40.151778769601755,116.25797170256133,49.904575,49.815273,0.0015898123,0.34309644,0.41186234,nan,2,2,0,0
56977538,56972887,40.151778781256205,116.25797170628807,49.90465,49.815895,0.0015898123,0.34592396,0.41191876,nan,2,2,0,0
57177848,57173339,40.15177878704399,116.25797170002312,49.89988,49.811047,0.0015898123,0.34324002,0.41181508,nan,2,2,0,0
57373384,57368846,40.15177879134289,116.25797168246237,49.898563,49.80997,0.0015898123,0.3425563,0.41153443,nan,2,2,0,0
57573865,57569507,40.1517787664333,116.25797165624228,49.89575,49.80772,0.0015898123,0.34293997,0.41162974,nan,2,2,0,0
57777796,57773067,40.15177872727192,116.25797166077439,49.891125,49.80508,0.0015898123,0.34256032,0.41146585,nan,2,2,0,0
57973193,57968784,40.15177869017836,116.25797166521929,49.88921,49.80452,0.0015898123,0.34228557,0.41133335,nan,2,2,0,0
58174006,58169688,40.15177865458141,116.25797165867617,49.888195,49.806984,0.0015898123,0.34264714,0.41183335,nan,2,2,0,0
58377693,58373069,40.151778615524826,116.25797163103901,49.89058,49.811455,0.0015898123,0.34258318,0.41177613,nan,2,2,0,0
58577568,58573246,40.15177859200638,116.25797156472085,49.890312,49.81365,0.0015898123,0.34230453,0.41124797,nan,2,2,0,0
58773081,58768895,40.15177860381461,116.25797151349371,49.889977,49.813095,0.0015898123,0.34440473,0.41152376,nan,2,2,0,0
58969151,58967725,40.15177860356004,116.25797148036914,49.889584,49.81434,0.0015898123,0.34336674,0.41155878,nan,2,2,0,0
59177733,59173297,40.15177861476208,116.2579714388635,49.892227,49.81893,0.0015898123,0.34152412,0.41126946,nan,2,2,0,0
59377632,59373073,40.15177861920093,116.25797139684065,49.895416,49.82474,0.0015898123,0.34219158,0.4114402,nan,2,2,0,0
59577863,59573575,40.151778618807455,116.25797136496955,49.897446,49.826405,0.0015898123,0.34242377,0.411465,nan,2,2,0,0
59773457,59769010,40.151778621687114,116.25797136551114,49.899834,49.830013,0.0015898123,0.34585783,0.41208792,nan,2,2,0,0
59978283,59973488,40.1517786450432,116.25797141835557,49.902924,49.835056,0.0015898123,0.34231743,0.41160047,nan,2,2,0,0
60173988,60169437,40.151778676775656,116.25797144443574,49.90518,49.83754,0.0015898123,0.34207356,0.41135463,nan,2,2,0,0
60381544,60377033,40.15177869619592,116.25797146558388,49.90626,49.839615,0.0015898123,0.34533224,0.4112917,nan,2,2,0,0
60577667,60572795,40.15177873878012,116.25797152490726,49.906044,49.8392,0.0015898123,0.34174398,0.41085875,nan,2,2,0,0
60777598,60772658,40.15177879342215,116.25797156886132,49.90751,49.841564,0.0015898123,0.34196916,0.41071266,nan,2,2,0,0
60973627,60969147,40.15177881924948,116.25797158668603,49.907085,49.8413,0.0015898123,0.34254578,0.4106635,nan,2,2,0,0
61174112,61168646,40.151778821118974,116.25797159916615,49.90664,49.843155,0.0015898123,0.3422474,0.41044706,nan,2,2,0,0
61369784,61365297,40.15177882856581,116.25797159900779,49.909145,49.84757,0.0015898123,0.34728968,0.41104493,nan,2,2,0,0
61577840,61573415,40.15177884196936,116.25797159989051,49.909653,49.84843,0.0015898123,0.34674314,0.41085207,nan,2,2,0,0
61778184,61773427,40.151778872731306,116.25797161282142,49.906055,49.843407,0.0015898123,0.3450041,0.41075087,nan,2,2,0,0
61973946,61969537,40.15177888275255,116.25797161856731,49.904552,49.841236,0.0015898123,0.3440739,0.4108312,nan,2,2,0,0
62173633,62168950,40.1517788707019,116.25797161583155,49.8985,49.834747,0.0015898123,0.34793055,0.4109249,nan,2,2,0,0
62373713,62369362,40.15177883525487,116.25797158349147,49.894775,49.832397,0.0015898123,0.34372944,0.4106247,nan,2,2,0,0
62581601,62577225,40.15177880471551,116.25797154643857,49.895504,49.832882,0.0015898123,0.34374434,0.41056597,nan,2,2,0,0
62773654,62769272,40.15177881140778,116.25797150795054,49.894382,49.831272,0.0015898123,0.34490582,0.41075835,nan,2,2,0,0
62977319,62972630,40.15177880338461,116.25797148975762,49.89584,49.832695,0.0015898123,0.34382257,0.4107751,nan,2,2,0,0
63173517,63169039,40.151778783088815,116.25797146531252,49.8967,49.833874,0.0015898123,0.34747803,0.4108267,nan,2,2,0,0
63381435,63377146,40.151778797736036,116.25797144038411,49.895405,49.83421,0.0015898123,0.34307027,0.4104292,nan,2,2,0,0
63573788,63569720,40.15177881672622,116.25797145901149,49.894444,49.834064,0.0015898123,0.34296495,0.41033164,nan,2,2,0,0
63781929,63777349,40.15177885729687,116.25797147103467,49.895992,49.836823,0.0015898123,0.3428367,0.41024414,nan,2,2,0,0
63969663,63965391,40.151778884484386,116.25797149444645,49.896194,49.836914,0.0015898123,0.34284645,0.4101972,nan,2,2,0,0
64178015,64172967,40.15177889955601,116.25797150974647,49.89683,49.83978,0.0015898123,0.34316704,0.41024595,nan,2,2,0,0
64377643,64373053,40.15177891684706,116.25797149765081,49.89821,49.842667,0.0015898123,0.34311777,0.4102264,nan,2,2,0,0
64581615,64577431,40.15177890604681,116.25797146549482,49.89962,49.84308,0.0015898123,0.34309137,0.41022813,nan,2,2,0,0
64773938,64769416,40.15177890654098,116.25797145820695,49.89847,49.841454,0.0015898123,0.34311968,0.41025695,nan,2,2,0,0
64973642,64969319,40.15177892003929,116.25797146418772,49.8966,49.83878,0.0015898123,0.34310505,0.4102961,nan,2,2,0,0
65173330,65168761,40.15177920434327,116.25797144733325,49.8948,49.836246,0.0015898123,0.3467302,0.41083804,nan,2,2,0,0
65378322,65373112,40.1517817953179,116.25797141607504,49.891457,49.836136,0.0015898123,0.34352916,0.41085702,nan,2,2,0,0
65578179,65572655,40.15178688276571,116.25797136466002,49.89082,49.83448,0.0015898123,0.34307224,0.41079715,nan,2,2,0,0
65773591,65769054,40.15179422343245,116.25797134321927,49.907974,49.851963,0.0015898123,0.34348354,0.41100517,nan,2,2,0,0
65973364,65969079,40.15180380210325,116.25797133989238,49.97012,49.915276,0.0015898123,0.34753233,0.41139883,nan,2,2,0,0
66177908,66173387,40.15181517466304,116.257971405295,50.085293,50.034245,0.0015898123,0.34289333,0.41108742,nan,2,2,0,0
66378185,66376780,40.15182688113342,116.25797155408124,50.41124,50.360462,0.0015898123,0.34300366,0.41127354,nan,2,2,0,0
66578200,66570239,40.15183763502237,116.25797176210573,50.923546,50.87453,0.0015898123,0.34276444,0.4113368,nan,2,2,0,0
66777615,66772905,40.15184911823529,116.25797198641841,51.533653,51.483948,0.0015898123,0.34816983,0.41232353,nan,2,2,0,0
66973752,66969234,40.15186076592595,116.25797227972677,52.153755,52.104828,0.0015898123,0.34761938,0.41246727,nan,2,2,0,0
67177832,67173496,40.15187302160314,116.25797271468792,52.872795,52.824642,0.0015898123,0.3474582,0.412736,nan,2,2,0,0
67381434,67377287,40.15188578703908,116.25797323192411,53.601254,53.553383,0.0015898123,0.347162,0.41293055,nan,2,2,0,0
67581959,67577265,40.151898638189536,116.25797394203839,54.368305,54.31995,0.0015898123,0.34682104,0.4130633,nan,2,2,0,0
67780938,67777114,40.151911921652044,116.2579748025799,55.15783,55.111443,0.0015898123,0.3461701,0.41301718,nan,2,2,0,0
67973512,67969133,40.15192502764756,116.25797575807874,55.951927,55.907158,0.0015898123,0.34524426,0.41331598,nan,2,2,0,0
68173932,68169384,40.15193899834435,116.25797701831064,56.81766,56.773228,0.0015898123,0.34448972,0.41309124,nan,2,2,0,0
68377910,68372944,40.15195359803174,116.25797858070655,57.721153,57.67774,0.0015898123,0.34391713,0.41291648,nan,2,2,0,0
68573696,68569444,40.15196799011391,116.2579804549373,58.627754,58.584217,0.0015898123,0.34707722,0.41309837,nan,2,2,0,0
68781415,68777131,40.15198359873516,116.25798280513663,59.610798,59.570637,0.0015898123,0.34362307,0.41280797,nan,2,2,0,0
68981123,68977064,40.15199890717534,116.25798548452528,60.589165,60.54907,0.0015898123,0.3434298,0.41269213,nan,2,2,0,0
69173542,69169280,40.152013914542486,116.25798837886127,61.552082,61.511417,0.0015898123,0.34364682,0.4127111,nan,2,2,0,0
69374318,69368885,40.15202977699642,116.25799170211924,62.575195,62.533848,0.0015898123,0.34304857,0.41242728,nan,2,2,0,0
69569997,69565320,40.15204564382425,116.2579954092948,63.60672,63.565567,0.0015898123,0.34296063,0.4127992,nan,2,2,0,0
69774079,69769330,40.15206240628892,116.25799971203179,64.701904,64.66126,0.0015898123,0.34395477,0.41308442,nan,2,2,0,0
69973047,69968761,40.15207900994899,116.25800444128328,65.797844,65.75816,0.0015898123,0.3439853,0.41298875,nan,2,2,0,0
70178523,70173271,40.15209628812386,116.25800988862744,66.94553,66.90876,0.0015898123,0.34405363,0.41241616,nan,2,2,0,0
70381504,70377319,40.152113787231436,116.25801586518739,68.11847,68.08279,0.0015898123,0.34412512,0.41281357,nan,2,2,0,0
70582001,70577600,40.15213120681633,116.25802222334268,69.29289,69.25894,0.0015898123,0.3433947,0.41244125,nan,2,2,0,0
70773750,70769298,40.15214801965783,116.25802881564648,70.4361,70.40276,0.0015898123,0.3432479,0.4122902,nan,2,2,0,0
70981623,70977667,40.15216644105662,116.25803659870522,71.7016,71.67161,0.0015898123,0.34272265,0.41201806,nan,2,2,0,0
71173196,71169009,40.15218348992457,116.25804437174071,72.88672,72.85783,0.0015898123,0.34607038,0.41215035,nan,2,2,0,0
71377977,71373068,40.152201790151366,116.25805321037886,74.17161,74.14564,0.0015898123,0.34305617,0.4119414,nan,2,2,0,0
71581876,71577751,40.15222029717594,116.25806271960079,75.48112,75.455666,0.0015898123,0.34298965,0.41182032,nan,2,2,0,0
71778230,71772997,40.152238107711156,116.25807235023821,76.745575,76.72259,0.0015898123,0.3462945,0.41238013,nan,2,2,0,0
71978082,71972791,40.15225645044,116.2580827154429,78.06028,78.03767,0.0015898123,0.34225512,0.4118155,nan,2,2,0,0
72178238,72173219,40.15227491968915,116.2580938120057,79.3996,79.37946,0.0015898123,0.3431141,0.411595,nan,2,2,0,0
72380812,72377613,40.15229378418016,116.25810583040469,80.78382,80.76515,0.0015898123,0.34307277,0.41190812,nan,2,2,0,0
72569305,72565019,40.1523111288285,116.25811740374758,82.06975,82.05066,0.0015898123,0.34709913,0.4122345,nan,2,2,0,0
72778310,72773398,40.15233039229852,116.25813084443692,83.51486,83.49724,0.0015898123,0.34299767,0.4116989,nan,2,2,0,0
72977719,72973104,40.152348866102244,116.25814435371481,84.91879,84.904015,0.0015898123,0.34316236,0.41166058,nan,2,2,0,0
73173521,73169321,40.15236699817774,116.25815827055827,86.31363,86.30069,0.0015898123,0.34331432,0.4116142,nan,2,2,0,0
73373673,73368911,40.152385441889415,116.25817301667837,87.74895,87.738335,0.0015898123,0.34301472,0.41143674,nan,2,2,0,0
73578040,73573387,40.15240429144212,116.25818871788654,89.23399,89.224846,0.0015898123,0.34280616,0.41128597,nan,2,2,0,0
73773296,73768855,40.152422304603064,116.25820426416043,90.663895,90.656364,0.0015898123,0.3429888,0.4112605,nan,2,2,0,0
73969857,73965376,40.152440405996714,116.25822039508179,92.10623,92.097404,0.0015898123,0.34308916,0.4112097,nan,2,2,0,0
74169288,74165059,40.15245954885885,116.25823778683534,93.44858,93.44158,0.0015898123,0.3467513,0.41183284,nan,2,2,0,0
74381764,74377334,40.15248099868034,116.25825761487835,94.71047,94.70437,0.0015898123,0.34305313,0.41143665,nan,2,2,0,0
74581844,74577418,40.1525021935326,116.25827771365192,95.747765,95.74381,0.0015898123,0.34304255,0.41137776,nan,2,2,0,0
74777582,74772975,40.15252383964504,116.25829876252733,96.62261,96.61982,0.0015898123,0.3462893,0.4115045,nan,2,2,0,0
74977859,74973110,40.152546943426444,116.25832181795177,97.384964,97.38347,0.0015898123,0.342728,0.41117254,nan,2,2,0,0
75173346,75168990,40.15257043513627,116.25834602766031,98.018585,98.016304,0.0015898123,0.34247395,0.41104797,nan,2,2,0,0
75373804,75369363,40.15259539219697,116.2583724211718,98.55851,98.55675,0.0015898123,0.34225944,0.4109357,nan,2,2,0,0
75569141,75564873,40.152620474468236,116.25839930154103,98.97175,98.96972,0.0015898123,0.34625235,0.411609,nan,2,2,0,0
75773904,75768473,40.152646581597615,116.25842745108602,99.30483,99.30381,0.0015898123,0.34196496,0.41108963,nan,2,2,0,0
75982082,75977400,40.15267308660356,116.25845612611641,99.55882,99.5582,0.0015898123,0.34289864,0.41092214,nan,2,2,0,0
76181016,76176887,40.152698152319005,116.25848318384041,99.73393,99.733925,0.0015898123,0.34538642,0.4112219,nan,2,2,0,0
76377688,76373045,40.152722503085904,116.25850958339429,99.863335,99.86613,0.0015898123,0.34195402,0.41086206,nan,2,2,0,0
76581626,76577385,40.152747632940816,116.25853685777028,99.950745,99.95504,0.0015898123,0.34211838,0.41086137,nan,2,2,0,0
76773092,76768512,40.15277092287908,116.2585620862296,100.00869,100.01319,0.0015898123,0.34160882,0.41065744,nan,2,2,0,0
76973878,76969468,40.152794953411345,116.25858863759137,100.07792,100.082214,0.0015898123,0.3420537,0.41076052,nan,2,2,0,0
77177929,77172907,40.15281868766489,116.25861565935799,100.11777,100.12356,0.0015898123,0.34179017,0.410656,nan,2,2,0,0
77377814,77373336,40.152841570291855,116.25864238898218,100.14115,100.147644,0.0015898123,0.34166953,0.4106017,nan,2,2,0,0
77577210,77572608,40.15286374983724,116.25866914209173,100.168304,100.174736,0.0015898123,0.3449235,0.41120288,nan,2,2,0,0
77781350,77777024,40.15288593396795,116.25869678743244,100.17479,100.1816,0.0015898123,0.34155884,0.4109185,nan,2,2,0,0
77968883,77964508,40.15290571803058,116.25872226919752,100.17583,100.18278,0.0015898123,0.34426716,0.4110203,nan,2,2,0,0
78173343,78169181,40.1529268731617,116.25875004930415,100.17444,100.182045,0.0015898123,0.34212428,0.41113022,nan,2,2,0,0
78368985,78364739,40.15294666303769,116.25877654961964,100.158875,100.1664,0.0015898123,0.34481025,0.41121504,nan,2,2,0,0
78581719,78577256,40.15296768936204,116.2588053857567,100.154915,100.16074,0.0015898123,0.34220034,0.4111991,nan,2,2,0,0
78773602,78768841,40.152986130781024,116.25883150304243,100.14717,100.15392,0.0015898123,0.34504092,0.41131735,nan,2,2,0,0
78973386,78969184,40.153004973844,116.25885885619897,100.14473,100.151505,0.0015898123,0.34240356,0.41130602,nan,2,2,0,0
79180873,79176750,40.1530239239277,116.25888732601041,100.13574,100.14221,0.0015898123,0.345567,0.41151237,nan,2,2,0,0
79381738,79377357,40.15304178746011,116.25891482586685,100.121124,100.127426,0.0015898123,0.3431325,0.41157398,nan,2,2,0,0
79573255,79568836,40.15305830275368,116.25894124112722,100.1115,100.11673,0.0015898123,0.34260288,0.41180426,nan,2,2,0,0
79769585,79765104,40.153074756694764,116.25896843110776,100.104095,100.10937,0.0015898123,0.34247315,0.4117522,nan,2,2,0,0
79977310,79972522,40.15309159402288,116.25899731020502,100.09132,100.09659,0.0015898123,0.34236786,0.41170162,nan,2,2,0,0
80181298,80176900,40.153107724360694,116.25902584943924,100.078224,100.082825,0.0015898123,0.34587157,0.41200384,nan,2,2,0,0
80373739,80368837,40.15312244169547,116.25905268699825,100.068634,100.073524,0.0015898123,0.34577766,0.4119508,nan,2,2,0,0
80578197,80572901,40.15313771243809,116.25908127965727,100.059296,100.063,0.0015898123,0.3425527,0.41168505,nan,2,2,0,0
80769429,80765147,40.15315184298263,116.25910820251114,100.04698,100.05107,0.0015898123,0.34601405,0.4119622,nan,2,2,0,0
80973504,80969108,40.153166675140056,116.25913665290311,100.03905,100.043915,0.0015898123,0.34229338,0.4115289,nan,2,2,0,0
81172759,81168589,40.15318105829583,116.25916437895077,100.03206,100.036095,0.0015898123,0.345292,0.41210017,nan,2,2,0,0
81373478,81368969,40.15319540672774,116.2591920271795,100.02677,100.03102,0.0015898123,0.34219268,0.41142443,nan,2,2,0,0
81573669,81569278,40.15320959871699,116.25921957424694,100.020164,100.026115,0.0015898123,0.34248713,0.41148022,nan,2,2,0,0
81781265,81777383,40.153224202640054,116.25924811095153,100.01323,100.02027,0.0015898123,0.34267205,0.41149846,nan,2,2,0,0
81978207,81972374,40.15323785258528,116.25927473744656,100.00508,100.0114,0.0015898123,0.34217623,0.41168353,nan,2,2,0,0
82181232,82177149,40.15325226081967,116.25930252782791,100.00523,100.011,0.0015898123,0.3423898,0.41170356,nan,2,2,0,0
82381150,82376911,40.15326631570109,116.25932950005516,99.99858,100.004105,0.0015898123,0.34226093,0.41160676,nan,2,2,0,0
82569391,82565020,40.15327949303845,116.25935480911663,99.98923,99.994896,0.0015898123,0.3424705,0.41162398,nan,2,2,0,0
82781311,82777209,40.153294251444734,116.25938331212953,99.98149,99.98721,0.0015898123,0.3422408,0.4114932,nan,2,2,0,0
82977948,82973634,40.15330771940058,116.25940971927868,99.97861,99.98359,0.0015898123,0.34182766,0.41130486,nan,2,2,0,0
83177561,83172919,40.1533211892663,116.25943654494385,99.967514,99.970825,0.0015898123,0.34517804,0.4119874,nan,2,2,0,0
83376993,83373257,40.15333457473018,116.25946352089207,99.96057,99.963684,0.0015898123,0.34479713,0.4118216,nan,2,2,0,0
83577625,83573714,40.15334784725128,116.25949048490901,99.94866,99.95053,0.0015898123,0.3419028,0.4112107,nan,2,2,0,0
83781119,83776810,40.15336113760086,116.25951779508844,99.946495,99.94727,0.0015898123,0.34222347,0.41168505,nan,2,2,0,0
83969464,83965033,40.15337344351514,116.25954307412874,99.941216,99.94164,0.0015898123,0.34184673,0.41151226,nan,2,2,0,0
84173557,84168411,40.15338669597854,116.25957035308804,99.932915,99.93192,0.0015898123,0.34182248,0.4114649,nan,2,2,0,0
84377002,84372894,40.153399918381766,116.25959772954707,99.92398,99.923004,0.0015898123,0.34516135,0.4117312,nan,2,2,0,0
84573496,84569235,40.15341266407347,116.25962393774289,99.91468,99.913826,0.0015898123,0.34216714,0.41149756,nan,2,2,0,0
84781797,84777140,40.15342619851091,116.25965160059579,99.9129,99.91187,0.0015898123,0.3424131,0.41154522,nan,2,2,0,0
84981380,84977280,40.15343934296441,116.25967805514992,99.91341,99.91058,0.0015898123,0.34231544,0.4114665,nan,2,2,0,0
85180648,85176736,40.15345254875544,116.25970426033562,99.9068,99.90482,0.0015898123,0.3422463,0.4113929,nan,2,2,0,0
85377640,85373335,40.153465694992285,116.2597299617423,99.9037,99.901184,0.0015898123,0.34277073,0.4115276,nan,2,2,0,0
85581773,85577789,40.15347936952812,116.2597565641019,99.90179,99.89964,0.0015898123,0.343122,0.41159517,nan,2,2,0,0
85780994,85777025,40.153492685910926,116.25978240754915,99.90319,99.90018,0.0015898123,0.34590873,0.4120667,nan,2,2,0,0
85977698,85973630,40.15350580908075,116.25980784631916,99.89993,99.89539,0.0015898123,0.34253561,0.41172424,nan,2,2,0,0
86181456,86177161,40.15351946590196,116.25983411799777,99.89453,99.887985,0.0015898123,0.3425999,0.41170436,nan,2,2,0,0
86377558,86372877,40.15353262378306,116.2598592781433,99.89079,99.88333,0.0015898123,0.3423198,0.41156358,nan,2,2,0,0
86573577,86569088,40.15354592711813,116.25988442070776,99.88603,99.87793,0.0015898123,0.34213173,0.41145802,nan,2,2,0,0
86778030,86773219,40.153559867296636,116.25991046728261,99.88014,99.87141,0.0015898123,0.34224042,0.41146415,nan,2,2,0,0
86977289,86973431,40.15357360315123,116.25993587344402,99.87575,99.865685,0.0015898123,0.3417217,0.41124266,nan,2,2,0,0
87177365,87172493,40.15358728726987,116.25996106668005,99.87008,99.859726,0.0015898123,0.3416741,0.41118994,nan,2,2,0,0
87381207,87376954,40.15360127422673,116.2599870208249,99.86704,99.85607,0.0015898123,0.34196702,0.4112502,nan,2,2,0,0
87573088,87568482,40.15361426782994,116.2600113707621,99.864334,99.853264,0.0015898123,0.34155387,0.41146466,nan,2,2,0,0
87781145,87776847,40.1536283712702,116.26003788078663,99.86114,99.84781,0.0015898123,0.34154394,0.41143107,nan,2,2,0,0
87977536,87972677,40.15364165220401,116.26006273867053,99.85603,99.84268,0.0015898123,0.3416025,0.41142148,nan,2,2,0,0
88180670,88176618,40.15365542012599,116.26008870057046,99.84976,99.834625,0.0015898123,0.34458765,0.4116044,nan,2,2,0,0
88380952,88377386,40.15366892965512,116.26011418938495,99.844666,99.82842,0.0015898123,0.34174952,0.41141596,nan,2,2,0,0
88577356,88573187,40.153682206319885,116.26013897889375,99.8367,99.820694,0.0015898123,0.34180662,0.41140467,nan,2,2,0,0
88781010,88777227,40.153696161679555,116.26016469881071,99.83522,99.8182,0.0015898123,0.3414852,0.411253,nan,2,2,0,0
88977350,88972574,40.153709624828636,116.26018919946544,99.831436,99.814095,0.0015898123,0.34453487,0.41144735,nan,2,2,0,0
89173775,89169274,40.15372319569213,116.26021382994094,99.826904,99.808334,0.0015898123,0.3414145,0.41116112,nan,2,2,0,0
89381023,89376873,40.1537375091901,116.26023975098575,99.82341,99.802734,0.0015898123,0.34514102,0.41197073,nan,2,2,0,0
89568868,89564370,40.153750407114174,116.260263084999,99.818954,99.79794,0.0015898123,0.34119812,0.41138116,nan,2,2,0,0
89773175,89768465,40.15376439058265,116.26028855361191,99.81479,99.7931,0.0015898123,0.3419701,0.41161337,nan,2,2,0,0
89981329,89977211,40.153778659325084,116.26031464040233,99.81261,99.79008,0.0015898123,0.34191695,0.41155258,nan,2,2,0,0
90180900,90177340,40.15379242831,116.26033955317222,99.81005,99.78687,0.0015898123,0.34257784,0.411738,nan,2,2,0,0
90381200,90377206,40.15380629623125,116.26036436738805,99.80234,99.778465,0.0015898123,0.34276137,0.41175622,nan,2,2,0,0
90581642,90577203,40.15382019049499,116.26038915863376,99.79793,99.7735,0.0015898123,0.3425349,0.4116362,nan,2,2,0,0
90777203,90773528,40.15383383254368,116.2604134329837,99.79448,99.767784,0.0015898123,0.34537902,0.4117237,nan,2,2,0,0
90977397,90972772,40.153847708687735,116.26043801041617,99.78766,99.76246,0.0015898123,0.34247813,0.41152963,nan,2,2,0,0
91182065,91177329,40.153862056870516,116.2604631514536,99.78343,99.756,0.0015898123,0.34227398,0.41142026,nan,2,2,0,0
91380734,91376500,40.153876098364705,116.26048755224471,99.77699,99.74932,0.0015898123,0.34210196,0.4117284,nan,2,2,0,0
91577385,91572762,40.15389001196851,116.26051154225229,99.77141,99.74504,0.0015898123,0.3425756,0.4114456,nan,2,2,0,0
91778609,91773145,40.15390425791765,116.26053598921308,99.76634,99.74053,0.0015898123,0.34227908,0.41170716,nan,2,2,0,0
91972887,91968461,40.153918132955276,116.26055978982373,99.76172,99.73492,0.0015898123,0.34539902,0.41190678,nan,2,2,0,0
92173585,92168903,40.15393237162286,116.2605841680404,99.755875,99.72828,0.0015898123,0.3421436,0.4115881,nan,2,2,0,0
92380971,92376791,40.15394708972921,116.26060952998952,99.75046,99.72098,0.0015898123,0.3416155,0.41136688,nan,2,2,0,0
92577442,92572788,40.153960968590866,116.2606334719289,99.74742,99.7193,0.0015898123,0.34185484,0.41142216,nan,2,2,0,0
92772656,92768339,40.15397491963107,116.26065729215226,99.74362,99.71532,0.0015898123,0.344693,0.41154757,nan,2,2,0,0
92977529,92972940,40.153989531657786,116.26068215249181,99.742676,99.71471,0.0015898123,0.3416902,0.4113023,nan,2,2,0,0
93181533,93176881,40.154004100319014,116.26070688015959,99.74214,99.71323,0.0015898123,0.34192166,0.41134688,nan,2,2,0,0
93380912,93376864,40.154018408533645,116.2607310679479,99.73808,99.7084,0.0015898123,0.34183276,0.41128045,nan,2,2,0,0
93577053,93573460,40.154032498702406,116.26075481227137,99.73248,99.70387,0.0015898123,0.34145254,0.41150287,nan,2,2,0,0
93777289,93772953,40.15404689473424,116.26077888410005,99.729996,99.700714,0.0015898123,0.34180743,0.41159245,nan,2,2,0,0
93981268,93976989,40.15406167882302,116.26080344987248,99.7269,99.69804,0.0015898123,0.34209487,0.41165274,nan,2,2,0,0
94177060,94172489,40.15407592171662,116.26082688739685,99.7261,99.69762,0.0015898123,0.34165677,0.41146305,nan,2,2,0,0
94381454,94376976,40.15409091959525,116.26085135139947,99.72299,99.695366,0.0015898123,0.34192038,0.41151813,nan,2,2,0,0
94577051,94572285,40.154105257442126,116.2608746752985,99.723785,99.696,0.0015898123,0.3415255,0.4113388,nan,2,2,0,0
94780808,94776876,40.154120263819415,116.26089910969833,99.72562,99.69986,0.0015898123,0.34183043,0.41140354,nan,2,2,0,0
94981580,94976406,40.15413479320767,116.26092306273823,99.727295,99.701866,0.0015898123,0.34146082,0.4112346,nan,2,2,0,0
95169641,95164675,40.1541484482238,116.26094567727007,99.7272,99.70206,0.0015898123,0.34474966,0.41192502,nan,2,2,0,0
95376853,95372316,40.154163376626926,116.26097069772045,99.72528,99.70158,0.0015898123,0.34434667,0.4117537,nan,2,2,0,0
95581024,95577957,40.15417811236466,116.26099553647742,99.72377,99.70034,0.0015898123,0.3421776,0.41137397,nan,2,2,0,0
95777472,95772638,40.15419207280653,116.26101907856265,99.72069,99.69779,0.0015898123,0.3420723,0.41169637,nan,2,2,0,0
95973536,95968890,40.1542061614082,116.26104277686437,99.715294,99.69269,0.0015898123,0.3422758,0.41172394,nan,2,2,0,0
96181135,96177271,40.15422116224424,116.26106784583685,99.7132,99.6901,0.0015898123,0.34237573,0.41171584,nan,2,2,0,0
96380883,96376520,40.15423557687906,116.26109172730612,99.70859,99.686455,0.0015898123,0.34187263,0.41149595,nan,2,2,0,0
96573195,96569203,40.15424956860126,116.26111481196072,99.70677,99.68501,0.0015898123,0.34150544,0.41132525,nan,2,2,0,0
96777180,96773081,40.154264448956724,116.26113918290194,99.708145,99.68632,0.0015898123,0.34210697,0.4115033,nan,2,2,0,0
96977591,96973077,40.15427909411757,116.26116300229103,99.7086,99.68691,0.0015898123,0.34164393,0.41129848,nan,2,2,0,0
97181464,97176923,40.15429407793322,116.26118729390092,99.70995,99.686676,0.0015898123,0.34224904,0.41146988,nan,2,2,0,0
97373326,97368966,40.15430815719176,116.26121018505334,99.7086,99.68505,0.0015898123,0.3421312,0.41139203,nan,2,2,0,0
97580494,97576462,40.154323170072345,116.26123508317733,99.709045,99.686005,0.0015898123,0.34197906,0.41130608,nan,2,2,0,0
97777514,97772811,40.15433714363312,116.26125884619907,99.70726,99.68326,0.0015898123,0.34216,0.41174114,nan,2,2,0,0
97977354,97972922,40.154351243418674,116.26128323763298,99.7025,99.67868,0.0015898123,0.34196413,0.41163355,nan,2,2,0,0
98182273,98177098,40.15436546613549,116.26130824742509,99.70093,99.67793,0.0015898123,0.34183493,0.4115479,nan,2,2,0,0
98381856,98376936,40.15437927773136,116.26133283169314,99.70209,99.68069,0.0015898123,0.34211358,0.41160703,nan,2,2,0,0
98580647,98577239,40.15439298474975,116.26135763536614,99.70525,99.68596,0.0015898123,0.3459842,0.41206625,nan,2,2,0,0
98781501,98777983,40.15440658582004,116.26138259775891,99.70564,99.68505,0.0015898123,0.3461695,0.4122072,nan,2,2,0,0
98981082,98972582,40.15441964733379,116.26140688936559,99.69959,99.67999,0.0015898123,0.34520632,0.41194546,nan,2,2,0,0
99177703,99173482,40.15443300824095,116.26143211281986,99.69737,99.68201,0.0015898123,0.3493106,0.41247973,nan,2,2,0,0
99370696,99369041,40.15444589490588,116.26145684072368,99.69676,99.68277,0.0015898123,0.34821483,0.41229275,nan,2,2,0,0
99577383,99572705,40.154459209126365,116.26148269761953,99.69901,99.68459,0.0015898123,0.35187945,0.4125883,nan,2,2,0,0
99781758,99778776,40.15447238170815,116.2615090852446,99.70094,99.68591,0.0015898123,0.3502521,0.41234583,nan,2,2,0,0
99981230,99976943,40.1544847638888,116.26153468213484,99.70358,99.69052,0.0015898123,0.34863403,0.41204876,nan,2,2,0,0
100181963,100177203,40.15449700745314,116.26156069520584,99.70285,99.69076,0.0015898123,0.3470154,0.41214,nan,2,2,0,0
100377563,100372449,40.15450874246977,116.26158618902312,99.701935,99.68886,0.0015898123,0.34542444,0.4117472,nan,2,2,0,0
100569193,100564920,40.154520055653265,116.26161155822427,99.69931,99.686516,0.0015898123,0.3445209,0.41156435,nan,2,2,0,0
100773105,100769022,40.154531760418045,116.26163867116944,99.69466,99.68167,0.0015898123,0.3440725,0.4115154,nan,2,2,0,0
100981978,100977354,40.154543424533045,116.2616665604626,99.69157,99.679184,0.0015898123,0.34402236,0.411587,nan,2,2,0,0
101181501,101177257,40.15455435533788,116.26169351107794,99.68916,99.676956,0.0015898123,0.34338063,0.4114352,nan,2,2,0,0
101381801,101377061,40.15456505229891,116.26172062184075,99.68742,99.677345,0.0015898123,0.3431735,0.4114254,nan,2,2,0,0
101573307,101568909,40.154575069467306,116.26174683234888,99.68797,99.67715,0.0015898123,0.34269956,0.41129595,nan,2,2,0,0
101781406,101777205,40.154585642039756,116.26177546384557,99.68849,99.67816,0.0015898123,0.3426125,0.4112896,nan,2,2,0,0
101977063,101972378,40.15459536221399,116.26180245177169,99.68804,99.6773,0.0015898123,0.3419595,0.4114702,nan,2,2,0,0
102173094,102168770,40.15460505245757,116.26182971727646,99.68492,99.674545,0.0015898123,0.34203723,0.41150054,nan,2,2,0,0
102381080,102376761,40.15461514470934,116.26185866907501,99.684326,99.675446,0.0015898123,0.34176072,0.41139922,nan,2,2,0,0
102577944,102573101,40.154624509162986,116.26188602973447,99.684265,99.676125,0.0015898123,0.34130022,0.4112253,nan,2,2,0,0
102773034,102768890,40.154633694941886,116.26191340798628,99.68282,99.6757,0.0015898123,0.34183526,0.4114061,nan,2,2,0,0
102981054,102976913,40.154643257749356,116.26194256912514,99.685776,99.67934,0.0015898123,0.34192228,0.41142246,nan,2,2,0,0
103173090,103168359,40.1546518836502,116.26196949203923,99.68799,99.68233,0.0015898123,0.34171006,0.41132572,nan,2,2,0,0
103377877,103373086,40.15466084732427,116.26199843447536,99.69174,99.68683,0.0015898123,0.34182042,0.4113453,nan,2,2,0,0
103580993,103576744,40.154669547792786,116.2620273672081,99.69383,99.689644,0.0015898123,0.34221324,0.41145277,nan,2,2,0,0
103777327,103772987,40.15467766809798,116.2620553422329,99.697395,99.695305,0.0015898123,0.34166116,0.41162434,nan,2,2,0,0
103976848,103972460,40.15468559021876,116.26208399376914,99.69808,99.69697,0.0015898123,0.34476742,0.41185933,nan,2,2,0,0
104177344,104172709,40.154693252418404,116.26211289270603,99.70287,99.7021,0.0015898123,0.3416781,0.4115644,nan,2,2,0,0
104377481,104373082,40.15470058690935,116.26214198122642,99.70315,99.70208,0.0015898123,0.34156737,0.41148776,nan,2,2,0,0
104581758,104576246,40.154707612614935,116.2621716378072,99.70368,99.703094,0.0015898123,0.34176645,0.41152558,nan,2,2,0,0
104780861,104776737,40.154714215393625,116.26220102146279,99.703995,99.705246,0.0015898123,0.34192866,0.4115397,nan,2,2,0,0
104980462,104976379,40.15472049678245,116.2622304079766,99.70538,99.706505,0.0015898123,0.34178105,0.41144386,nan,2,2,0,0
105172532,105168198,40.15472616452865,116.26225877465416,99.70445,99.70643,0.0015898123,0.34425306,0.41186655,nan,2,2,0,0
105381084,105377154,40.154731983668356,116.2622897429211,99.69934,99.69994,0.0015898123,0.34169585,0.4113425,nan,2,2,0,0
105573326,105568134,40.154737020163644,116.26231807581394,99.695435,99.696335,0.0015898123,0.34453273,0.4118853,nan,2,2,0,0
105773010,105768642,40.15474217735551,116.26234787055638,99.68887,99.68825,0.0015898123,0.34480783,0.41194284,nan,2,2,0,0
105980856,105976783,40.15474735315555,116.26237890163647,99.681335,99.67807,0.0015898123,0.34142387,0.4115335,nan,2,2,0,0
106169315,106165060,40.15475190495606,116.26240703198636,99.67432,99.67154,0.0015898123,0.34172684,0.41159907,nan,2,2,0,0
106377887,106372731,40.154756736576914,116.26243810542489,99.67154,99.668564,0.0015898123,0.34189296,0.4116176,nan,2,2,0,0
106573443,106568946,40.154761171123674,116.26246749688397,99.67364,99.67066,0.0015898123,0.34176752,0.41152143,nan,2,2,0,0
106777393,106772346,40.15476548678044,116.2624980492632,99.67667,99.674225,0.0015898123,0.34163737,0.4114327,nan,2,2,0,0
106977289,106973069,40.154769347675646,116.26252829423836,99.68248,99.67972,0.0015898123,0.3419201,0.41148365,nan,2,2,0,0
107180708,107176980,40.15477278835529,116.2625591205485,99.68806,99.68748,0.0015898123,0.3417914,0.4113904,nan,2,2,0,0
107380769,107376639,40.15477568344058,116.2625893737237,99.693054,99.69264,0.0015898123,0.34168392,0.41131017,nan,2,2,0,0
107572956,107569032,40.154778103485135,116.26261857402932,99.69515,99.69573,0.0015898123,0.34196746,0.41136163,nan,2,2,0,0
107773121,107768697,40.15478031928307,116.2626489575108,99.69567,99.69612,0.0015898123,0.3420925,0.41176707,nan,2,2,0,0
107973098,107968652,40.154782347073414,116.26267935570372,99.694374,99.69435,0.0015898123,0.34185237,0.41163564,nan,2,2,0,0
108177011,108172309,40.154784180795545,116.26271032519054,99.69316,99.69194,0.0015898123,0.34169567,0.41153708,nan,2,2,0,0
108376858,108372344,40.15478586275885,116.26274078440734,99.69438,99.69219,0.0015898123,0.34194684,0.41159233,nan,2,2,0,0
108581452,108576961,40.15478751586769,116.26277194886828,99.697014,99.69681,0.0015898123,0.34215963,0.4116251,nan,2,2,0,0
108772560,108768315,40.154788985168544,116.26280112434094,99.69934,99.69985,0.0015898123,0.34496802,0.41173467,nan,2,2,0,0
108977195,108972602,40.15479043462038,116.26283224246811,99.69748,99.699356,0.0015898123,0.34182382,0.41143703,nan,2,2,0,0
109169135,109164624,40.15479166458098,116.26286150554304,99.6965,99.6987,0.0015898123,0.341982,0.41144598,nan,2,2,0,0
109372770,109368304,40.15479297651938,116.26289255830915,99.69249,99.69363,0.0015898123,0.3417583,0.41132283,nan,2,2,0,0
109572862,109568540,40.15479425608667,116.26292308465413,99.68822,99.689354,0.0015898123,0.3419108,0.41134244,nan,2,2,0,0
109777425,109773058,40.154795485394395,116.26295424047417,99.685684,99.687706,0.0015898123,0.34204018,0.4113509,nan,2,2,0,0
109976810,109972275,40.15479662690472,116.2629845772139,99.68474,99.687386,0.0015898123,0.34216696,0.41175926,nan,2,2,0,0
110177503,110172903,40.154797764005714,116.2630151491556,99.68211,99.68469,0.0015898123,0.34196833,0.41164133,nan,2,2,0,0
110373263,110368417,40.15479888795855,116.26304495265344,99.680565,99.68352,0.0015898123,0.34511018,0.4118592,nan,2,2,0,0
110577117,110572410,40.154800063172885,116.26307596843024,99.678604,99.678406,0.0015898123,0.3419625,0.4115576,nan,2,2,0,0
110781705,110776960,40.1548012369997,116.26310714220584,99.67566,99.6755,0.0015898123,0.34245867,0.41169557,nan,2,2,0,0
110980975,110976229,40.15480241442209,116.26313750480762,99.67433,99.673615,0.0015898123,0.34186825,0.41144887,nan,2,2,0,0
111180880,111176700,40.154803626684554,116.26316803043814,99.67287,99.672966,0.0015898123,0.3420287,0.41146824,nan,2,2,0,0
111377162,111372600,40.1548048905686,116.26319782712923,99.67232,99.67411,0.0015898123,0.3418809,0.41138297,nan,2,2,0,0
111577225,111572885,40.15480626995635,116.26322834487499,99.676254,99.67872,0.0015898123,0.34179163,0.4113174,nan,2,2,0,0
111777004,111772352,40.15480766086845,116.26325874376543,99.68205,99.68472,0.0015898123,0.34230274,0.41144693,nan,2,2,0,0
111972965,111968874,40.15480907045425,116.26328872755518,99.68709,99.69033,0.0015898123,0.34242,0.41144192,nan,2,2,0,0
112177175,112172289,40.15481062873813,116.26331972721216,99.69219,99.694984,0.0015898123,0.34549528,0.4120274,nan,2,2,0,0
112372849,112368696,40.154812251836866,116.26334958929124,99.69739,99.70043,0.0015898123,0.34217882,0.41167086,nan,2,2,0,0
112572622,112568290,40.15481394653565,116.26337996774315,99.70093,99.70413,0.0015898123,0.34191418,0.41153598,nan,2,2,0,0
112780908,112776640,40.15481572898879,116.26341167302645,99.698105,99.70083,0.0015898123,0.34233963,0.41164616,nan,2,2,0,0
112981741,112977754,40.154817410487844,116.26344226082753,99.69641,99.69907,0.0015898123,0.34206235,0.4115054,nan,2,2,0,0
113180686,113176685,40.154819076078425,116.26347247374304,99.69728,99.69946,0.0015898123,0.34186265,0.41139033,nan,2,2,0,0
113380999,113376596,40.15482075564904,116.26350287841312,99.69391,99.69403,0.0015898123,0.341461,0.41121277,nan,2,2,0,0
113577101,113572379,40.15482244923732,116.26353268520755,99.69252,99.69264,0.0015898123,0.34143496,0.4111697,nan,2,2,0,0
113773108,113768731,40.15482423063858,116.26356256993238,99.69019,99.68912,0.0015898123,0.34177238,0.4112493,nan,2,2,0,0
113977382,113972854,40.154826108580394,116.26359366586411,99.68835,99.68843,0.0015898123,0.3416779,0.41157025,nan,2,2,0,0
114180676,114176633,40.15482796099236,116.26362471224155,99.684265,99.68592,0.0015898123,0.34160706,0.4115051,nan,2,2,0,0
114381272,114376952,40.15482977555004,116.26365518012982,99.68347,99.684746,0.0015898123,0.3422121,0.41128027,nan,2,2,0,0
114576897,114572920,40.15483158546708,116.26368497652831,99.68188,99.68317,0.0015898123,0.34173825,0.41147736,nan,2,2,0,0
114780661,114776222,40.15483356932416,116.26371587318297,99.680756,99.68415,0.0015898123,0.3413394,0.41129506,nan,2,2,0,0
114981856,114977012,40.154835543859186,116.26374641757515,99.68112,99.68444,0.0015898123,0.3410763,0.41116726,nan,2,2,0,0
115173562,115167937,40.154837406210085,116.26377547175201,99.68198,99.68627,0.0015898123,0.34441152,0.41189027,nan,2,2,0,0
115380633,115376595,40.15483941031043,116.26380720652078,99.68233,99.687,0.0015898123,0.34213632,0.41146886,nan,2,2,0,0
115581202,115576663,40.154841365068386,116.26383760405028,99.68486,99.69031,0.0015898123,0.34236225,0.41151008,nan,2,2,0,0
115772231,115768036,40.15484324605836,116.2638666740336,99.68732,99.69362,0.0015898123,0.3448321,0.41191432,nan,2,2,0,0
115972792,115968369,40.154845250477514,116.26389705038478,99.68419,99.689186,0.0015898123,0.34178954,0.4116363,nan,2,2,0,0
116173589,116168924,40.15484726970591,116.26392748886097,99.676895,99.681564,0.0015898123,0.3413717,0.41144538,nan,2,2,0,0
116373382,116368921,40.1548492746587,116.26395785300687,99.67378,99.67698,0.0015898123,0.34166652,0.4115203,nan,2,2,0,0
116580637,116576327,40.154851327301124,116.26398931739894,99.671875,99.6747,0.0015898123,0.34158233,0.41145176,nan,2,2,0,0
116777009,116772025,40.15485326804896,116.26401905170552,99.669815,99.67361,0.0015898123,0.34447032,0.41160333,nan,2,2,0,0
116980428,116976495,40.154855265804315,116.26405013869677,99.67143,99.675735,0.0015898123,0.3416139,0.41138402,nan,2,2,0,0
117177145,117172812,40.15485720488216,116.26408001987294,99.67474,99.67858,0.0015898123,0.3419326,0.41146117,nan,2,2,0,0
117372961,117368803,40.154859155207504,116.26410985077976,99.679855,99.68338,0.0015898123,0.34215242,0.4114991,nan,2,2,0,0
117576738,117572125,40.15486120783589,116.26414080420128,99.679214,99.68207,0.0015898123,0.34491172,0.41200548,nan,2,2,0,0
117772936,117768629,40.15486328301903,116.26417067031345,99.67801,99.68067,0.0015898123,0.34192532,0.41134027,nan,2,2,0,0
117976640,117972233,40.154865455016996,116.26420163308586,99.678635,99.6808,0.0015898123,0.34210864,0.41176865,nan,2,2,0,0
118173090,118168465,40.15486755076917,116.26423148412205,99.67485,99.67587,0.0015898123,0.34229285,0.41178876,nan,2,2,0,0
118380464,118376162,40.15486972957878,116.26426306452743,99.67401,99.673904,0.0015898123,0.34204003,0.41165423,nan,2,2,0,0
118573220,118568479,40.15487172874405,116.26429225914862,99.67186,99.67218,0.0015898123,0.3448354,0.411764,nan,2,2,0,0
118772918,118768510,40.15487377394642,116.26432261362466,99.66939,99.66955,0.0015898123,0.34147677,0.4113782,nan,2,2,0,0
118968280,118964053,40.15487576373955,116.26435227936972,99.66695,99.666405,0.0015898123,0.34430474,0.41151989,nan,2,2,0,0
119181101,119176827,40.15487797266771,116.26438455354048,99.66536,99.66481,0.0015898123,0.34172398,0.41139817,nan,2,2,0,0
119380957,119376698,40.1548800664263,116.26441486350001,99.667206,99.66577,0.0015898123,0.34163767,0.41132566,nan,2,2,0,0
119578408,119572880,40.15488217996684,116.26444464632449,99.667564,99.66524,0.0015898123,0.3415889,0.41126978,nan,2,2,0,0
119772540,119768353,40.15488429268041,116.26447435733346,99.66469,99.66302,0.0015898123,0.34478953,0.4119279,nan,2,2,0,0
119980607,119976817,40.154886539210295,116.2645059944966,99.664566,99.663,0.0015898123,0.34178534,0.41125518,nan,2,2,0,0
120181240,120177030,40.15488860823265,116.26453637484222,99.66806,99.666534,0.0015898123,0.34203365,0.41169736,nan,2,2,0,0
120377302,120372769,40.15489062129595,116.2645661045197,99.673004,99.67231,0.0015898123,0.34218806,0.41170585,nan,2,2,0,0
120577696,120572922,40.15489268590643,116.26459657176747,99.67395,99.67281,0.0015898123,0.34196535,0.41158083,nan,2,2,0,0
120781356,120776463,40.15489481854316,116.26462755682644,99.67389,99.67321,0.0015898123,0.34206277,0.4115714,nan,2,2,0,0
120972365,120967981,40.15489683683076,116.2646567119715,99.67392,99.67414,0.0015898123,0.34481472,0.41165915,nan,2,2,0,0
121180803,121177519,40.15489904624936,116.26468853514966,99.67137,99.66993,0.0015898123,0.34202176,0.41148216,nan,2,2,0,0
121377593,121372881,40.15490112102697,116.26471823539723,99.67044,99.66917,0.0015898123,0.3415429,0.41128123,nan,2,2,0,0
121572595,121568405,40.15490317411522,116.26474793779897,99.66849,99.66728,0.0015898123,0.34503502,0.41204885,nan,2,2,0,0
121778046,121772902,40.1549053182344,116.26477899396777,99.66821,99.66551,0.0015898123,0.3412626,0.4115048,nan,2,2,0,0
121972935,121968643,40.154907374871016,116.2648087638818,99.66397,99.66204,0.0015898123,0.34184653,0.41168383,nan,2,2,0,0
122181762,122176782,40.1549097033714,116.26484039102064,99.66007,99.65471,0.0015898123,0.34228858,0.41180807,nan,2,2,0,0
122378673,122372368,40.1549119877912,116.26487008627161,99.65839,99.65336,0.0015898123,0.34201753,0.4116724,nan,2,2,0,0
122581242,122576792,40.15491449360889,116.26490106707702,99.657974,99.65336,0.0015898123,0.34213337,0.411278,nan,2,2,0,0
122778221,122772737,40.154917057955025,116.26493073507022,99.65871,99.65317,0.0015898123,0.34162167,0.41146085,nan,2,2,0,0
122972513,122968341,40.15491983225145,116.26496035784241,99.65788,99.651924,0.0015898123,0.3447404,0.41167837,nan,2,2,0,0
123172985,123168591,40.154922862015866,116.26499061838118,99.66005,99.655266,0.0015898123,0.34169272,0.41140375,nan,2,2,0,0
123380680,123376430,40.15492620183415,116.26502200145957,99.66266,99.659225,0.0015898123,0.34155694,0.4113224,nan,2,2,0,0
123580436,123576515,40.15492958261127,116.26505216867801,99.66376,99.66011,0.0015898123,0.34179482,0.41136372,nan,2,2,0,0
123780183,123776173,40.1549330668507,116.26508230215617,99.66511,99.662025,0.0015898123,0.34169224,0.4112866,nan,2,2,0,0
123976694,123971964,40.15493659283513,116.26511184602148,99.665405,99.66219,0.0015898123,0.34189862,0.41172242,nan,2,2,0,0
124173063,124168416,40.15494024450598,116.26514146602952,99.66565,99.663,0.0015898123,0.34231097,0.41182563,nan,2,2,0,0
124372326,124368011,40.154944159615106,116.26517152702715,99.66814,99.66722,0.0015898123,0.34463075,0.41175643,nan,2,2,0,0
124580616,124579130,40.154948496718134,116.26520326357183,99.673615,99.67063,0.0015898123,0.34223372,0.4116951,nan,2,2,0,0
124777318,124772848,40.154952748077264,116.26523231126984,99.67775,99.67446,0.0015898123,0.3446532,0.41166246,nan,2,2,0,0
124972636,124968347,40.15495731201947,116.26526151125783,99.67739,99.67484,0.0015898123,0.34489334,0.41169056,nan,2,2,0,0
125180508,125176887,40.15496252134854,116.26529253691659,99.681625,99.67812,0.0015898123,0.34178776,0.4113997,nan,2,2,0,0
125372703,125368379,40.15496765783371,116.26532089958434,99.686676,99.68337,0.0015898123,0.34169656,0.4113226,nan,2,2,0,0
125580628,125576654,40.15497360708234,116.26535168833547,99.68977,99.68605,0.0015898123,0.34160122,0.41124654,nan,2,2,0,0
125781123,125777311,40.15497969033227,116.26538126482929,99.69095,99.68784,0.0015898123,0.34189957,0.41131434,nan,2,2,0,0
125977091,125972337,40.154985891925435,116.26540986749765,99.6938,99.69066,0.0015898123,0.3417973,0.4116406,nan,2,2,0,0
126177310,126172793,40.15499260092759,116.26543915823763,99.69447,99.68959,0.0015898123,0.34172654,0.4111792,nan,2,2,0,0
126377645,126372891,40.15499962390527,116.2654682824017,99.69246,99.68789,0.0015898123,0.34166116,0.41150764,nan,2,2,0,0
126572780,126568418,40.155006895029885,116.2654966280986,99.69251,99.68766,0.0015898123,0.3419329,0.41155893,nan,2,2,0,0
126772341,126768106,40.155014668092996,116.26552537100771,99.69258,99.68794,0.0015898123,0.34477875,0.4116752,nan,2,2,0,0
126972504,126968114,40.15502275375909,116.26555395739634,99.690216,99.685646,0.0015898123,0.3417565,0.411425,nan,2,2,0,0
127180382,127176048,40.1550314006046,116.26558355504413,99.689964,99.68642,0.0015898123,0.3419966,0.4114703,nan,2,2,0,0
127372932,127368363,40.155039656227366,116.26561083726111,99.69048,99.68819,0.0015898123,0.34252033,0.41161615,nan,2,2,0,0
127576794,127572378,40.155048611316985,116.26563967800239,99.69055,99.68624,0.0015898123,0.34252942,0.41157815,nan,2,2,0,0
127772538,127768063,40.1550573584454,116.26566731147618,99.68848,99.68472,0.0015898123,0.34191716,0.41132882,nan,2,2,0,0
127973586,127968324,40.155066509522754,116.26569549584305,99.68503,99.682945,0.0015898123,0.345038,0.411954,nan,2,2,0,0
128172417,128168117,40.155075765449915,116.26572343605002,99.687805,99.6843,0.0015898123,0.34448954,0.41174042,nan,2,2,0,0
128377413,128372755,40.1550854445374,116.26575192428058,99.6859,99.684555,0.0015898123,0.34156585,0.41150132,nan,2,2,0,0
128573101,128568655,40.155094969461004,116.26577915210437,99.68631,99.685875,0.0015898123,0.34181806,0.41155803,nan,2,2,0,0
128777190,128772139,40.15510511842095,116.26580725905417,99.68799,99.68872,0.0015898123,0.3416685,0.411471,nan,2,2,0,0
128976775,128972115,40.1551152764678,116.26583482163659,99.68854,99.689445,0.0015898123,0.34158513,0.41139922,nan,2,2,0,0
129172828,129168550,40.15512546666054,116.26586177090927,99.689,99.689316,0.0015898123,0.34185535,0.41145706,nan,2,2,0,0
129376684,129372003,40.1551361689176,116.26588953250615,99.691696,99.69097,0.0015898123,0.34172082,0.41137686,nan,2,2,0,0
129576849,129572465,40.15514692225413,116.26591673537719,99.68933,99.68664,0.0015898123,0.34198684,0.41142833,nan,2,2,0,0
129780730,129776415,40.155158069123395,116.26594428661824,99.687225,99.68448,0.0015898123,0.3415523,0.41124055,nan,2,2,0,0
129968955,129964523,40.155168495159955,116.26596955542081,99.68701,99.68356,0.0015898123,0.34153685,0.41159415,nan,2,2,0,0
130180446,130176265,40.155180434853776,116.26599786516674,99.68717,99.68249,0.0015898123,0.3414914,0.41154426,nan,2,2,0,0
130380431,130376198,40.155191944321466,116.26602443975833,99.68515,99.68191,0.0015898123,0.34149808,0.41151473,nan,2,2,0,0
130576833,130572479,40.155203482649476,116.26605030911338,99.6895,99.68635,0.0015898123,0.3415509,0.41149488,nan,2,2,0,0
130777267,130772382,40.15521542905384,116.26607656275021,99.68746,99.683,0.0015898123,0.3444738,0.411655,nan,2,2,0,0
130977117,130972428,40.15522755714974,116.26610266201014,99.68681,99.68337,0.0015898123,0.34420377,0.41152957,nan,2,2,0,0
131176966,131173411,40.155239933621026,116.266128719655,99.68738,99.6827,0.0015898123,0.34178066,0.4114515,nan,2,2,0,0
131380916,131376444,40.155252604564026,116.26615489871666,99.68652,99.68147,0.0015898123,0.34210405,0.41151154,nan,2,2,0,0
131577377,131573435,40.15526508894012,116.26618014629028,99.68523,99.680115,0.0015898123,0.34171936,0.41133597,nan,2,2,0,0
131772430,131767892,40.15527756922717,116.2662049249031,99.68204,99.67714,0.0015898123,0.3417118,0.41129297,nan,2,2,0,0
131980313,131976368,40.155291136493084,116.2662313497191,99.67986,99.67358,0.0015898123,0.3419524,0.41173822,nan,2,2,0,0
132176485,132171899,40.1553040218695,116.26625598332849,99.68092,99.674194,0.0015898123,0.34219962,0.41178083,nan,2,2,0,0
132376916,132372788,40.15531749014027,116.26628110250645,99.68024,99.67487,0.0015898123,0.34233972,0.41179183,nan,2,2,0,0
132576999,132573066,40.1553311914383,116.2663058920795,99.67818,99.671745,0.0015898123,0.3418212,0.41156232,nan,2,2,0,0
132772530,132768085,40.15534477450501,116.26632981337121,99.67687,99.67069,0.0015898123,0.34172517,0.41148388,nan,2,2,0,0
132972985,132968425,40.155358919608425,116.26635421161193,99.67203,99.66388,0.0015898123,0.34197086,0.41153812,nan,2,2,0,0
133172772,133168404,40.155373218143566,116.26637835205595,99.669395,99.66067,0.0015898123,0.3421529,0.41157055,nan,2,2,0,0
133380160,133376364,40.15538824857991,116.26640325171525,99.666885,99.65794,0.0015898123,0.34226555,0.4115686,nan,2,2,0,0
133577334,133572766,40.155402583938844,116.26642660147033,99.66332,99.65483,0.0015898123,0.34262398,0.4116591,nan,2,2,0,0
133777432,133772592,40.155417420425835,116.26645015813321,99.66129,99.65203,0.0015898123,0.3428244,0.411686,nan,2,2,0,0
133980517,133976628,40.15543268968908,116.2664741041134,99.65817,99.64948,0.0015898123,0.34266508,0.4115916,nan,2,2,0,0
134168764,134164491,40.15544686376287,116.26649600315746,99.6575,99.6496,0.0015898123,0.34228206,0.41141906,nan,2,2,0,0
134373141,134367976,40.15546235507571,116.26651956783327,99.657974,99.64981,0.0015898123,0.34523538,0.41199198,nan,2,2,0,0
134576549,134572264,40.155478051132725,116.2665430190734,99.65457,99.644516,0.0015898123,0.34197295,0.41164255,nan,2,2,0,0
134772644,134768279,40.15549327136382,116.26656542674975,99.652306,99.64189,0.0015898123,0.34208807,0.4116523,nan,2,2,0,0
134976813,134972026,40.155509216087864,116.26658856060743,99.65291,99.64539,0.0015898123,0.34149405,0.41141137,nan,2,2,0,0
135181780,135176859,40.155525401503226,116.26661166434305,99.65468,99.646996,0.0015898123,0.34140635,0.41134748,nan,2,2,0,0
135376910,135372710,40.155540950821866,116.2666336182028,99.65459,99.64753,0.0015898123,0.34422064,0.41149163,nan,2,2,0,0
135577116,135572301,40.15555685827158,116.26665588739938,99.65521,99.64772,0.0015898123,0.34108934,0.41117433,nan,2,2,0,0
135772130,135767712,40.15557252396234,116.26667766534027,99.65378,99.64624,0.0015898123,0.34365985,0.41125154,nan,2,2,0,0
135976518,135971812,40.15558889849056,116.26670032028032,99.65115,99.64608,0.0015898123,0.3435102,0.41157064,nan,2,2,0,0
136172828,136168162,40.155604623448724,116.26672217437648,99.651245,99.64683,0.0015898123,0.34099117,0.41105816,nan,2,2,0,0
136381227,136377058,40.15562135773109,116.26674539459259,99.65671,99.65316,0.0015898123,0.34081936,0.41134867,nan,2,2,0,0
136577058,136572748,40.155637019292016,116.26676712373796,99.66072,99.65926,0.0015898123,0.34457847,0.41182408,nan,2,2,0,0
136780661,136776600,40.15565328154426,116.26678988427915,99.6658,99.66381,0.0015898123,0.34167475,0.41158655,nan,2,2,0,0
136981068,136977090,40.15566920102296,116.26681237618688,99.66948,99.668594,0.0015898123,0.34169927,0.41155016,nan,2,2,0,0
137172982,137168542,40.1556844182566,116.26683382090525,99.67425,99.67254,0.0015898123,0.3420104,0.41162828,nan,2,2,0,0
137380530,137376471,40.15570097137724,116.2668570626979,99.67267,99.671,0.0015898123,0.3421882,0.41164547,nan,2,2,0,0
137581242,137576853,40.15571695671926,116.26687944979132,99.674835,99.67321,0.0015898123,0.34203053,0.41154754,nan,2,2,0,0
137776867,137772080,40.15573253262007,116.26690126085965,99.67381,99.67306,0.0015898123,0.34521237,0.411777,nan,2,2,0,0
137977204,137971989,40.155748510551085,116.26692354814561,99.67319,99.67189,0.0015898123,0.34504518,0.41168207,nan,2,2,0,0
138177516,138172813,40.155764536774086,116.26694592809392,99.6714,99.67086,0.0015898123,0.3416534,0.41129908,nan,2,2,0,0
138380428,138376266,40.15578073257603,116.26696866429367,99.66936,99.66949,0.0015898123,0.3448796,0.4119646,nan,2,2,0,0
138576908,138572524,40.15579636252123,116.26699054938294,99.670135,99.6705,0.0015898123,0.3416013,0.4112062,nan,2,2,0,0
138780526,138776294,40.15581258164229,116.26701329207073,99.66986,99.67092,0.0015898123,0.34160152,0.41156265,nan,2,2,0,0
138976956,138972632,40.155828221179966,116.2670352403819,99.67222,99.67462,0.0015898123,0.34450063,0.41172487,nan,2,2,0,0
139172169,139167870,40.155843749841736,116.2670571053791,99.6736,99.67657,0.0015898123,0.34488118,0.4118098,nan,2,2,0,0
139381272,139376997,40.155860307563934,116.2670805957727,99.67349,99.67799,0.0015898123,0.34183013,0.41153473,nan,2,2,0,0
139571954,139567727,40.15587539219044,116.26710201186636,99.672134,99.676056,0.0015898123,0.34502876,0.4117805,nan,2,2,0,0
139776765,139772265,40.155891606057914,116.26712497293433,99.668045,99.6723,0.0015898123,0.34220043,0.41160125,nan,2,2,0,0
139982112,139976723,40.155907835018986,116.2671478923606,99.66468,99.668755,0.0015898123,0.3416859,0.4113811,nan,2,2,0,0
140177146,140172508,40.155923487708925,116.26716978974429,99.66039,99.66445,0.0015898123,0.34188834,0.4114166,nan,2,2,0,0
140380140,140376100,40.15593979242403,116.26719252822,99.65973,99.66427,0.0015898123,0.34178185,0.41134173,nan,2,2,0,0
140572757,140568364,40.15595518879987,116.26721402699721,99.663025,99.666466,0.0015898123,0.3420665,0.41140926,nan,2,2,0,0
140780251,140776104,40.15597183928068,116.26723719357918,99.66513,99.67122,0.0015898123,0.34187567,0.41171035,nan,2,2,0,0
140981381,140976293,40.15598785557015,116.2672594846189,99.666626,99.67257,0.0015898123,0.342369,0.41184863,nan,2,2,0,0
141180967,141176326,40.15600389930526,116.26728171606358,99.66579,99.67097,0.0015898123,0.34181473,0.41160715,nan,2,2,0,0
141377151,141372282,40.15601970265753,116.26730344116544,99.662415,99.668045,0.0015898123,0.34168175,0.41152185,nan,2,2,0,0
141573207,141568480,40.1560355312597,116.26732511098068,99.660736,99.66672,0.0015898123,0.3448386,0.41176295,nan,2,2,0,0
141781092,141776343,40.15605228355795,116.26734805212119,99.66069,99.66717,0.0015898123,0.34175333,0.41147798,nan,2,2,0,0
141980047,141975886,40.15606837834348,116.26737004302288,99.66095,99.66688,0.0015898123,0.34457538,0.41160893,nan,2,2,0,0
142171928,142168249,40.15608386445581,116.26739124815566,99.66077,99.66779,0.0015898123,0.3416694,0.41138202,nan,2,2,0,0
142380779,142376282,40.156100557724315,116.26741430853944,99.65889,99.66512,0.0015898123,0.34214094,0.4115175,nan,2,2,0,0
142581018,142576525,40.15611650920597,116.26743664130893,99.657684,99.66238,0.0015898123,0.34228516,0.41153058,nan,2,2,0,0
142772531,142767973,40.156131682134,116.26745813298437,99.65413,99.65857,0.0015898123,0.3453815,0.41215816,nan,2,2,0,0
142981601,142976647,40.15614812340576,116.26748164941378,99.65112,99.65406,0.0015898123,0.34179676,0.41129294,nan,2,2,0,0
143181056,143176517,40.15616389179975,116.26750417466296,99.648224,99.65175,0.0015898123,0.34169066,0.41161925,nan,2,2,0,0
143380128,143376079,40.15617965717255,116.26752667406748,99.64467,99.64741,0.0015898123,0.3416232,0.4115615,nan,2,2,0,0
143581046,143576320,40.156195506519744,116.26754921371274,99.641556,99.64462,0.0015898123,0.34190643,0.4116248,nan,2,2,0,0
143780263,143775958,40.15621133391691,116.26757162696454,99.641365,99.64467,0.0015898123,0.3414706,0.41143686,nan,2,2,0,0
